$GPGGA,000000.000,3346.8781,N,08424.0594,W,1,06,2.9,326.6,M,-30.8,M,,0000*69
$GPGGA,000100.000,3346.8781,N,08424.0594,W,1,06,2.9,326.6,M,-30.8,M,,0000*69
$GPGGA,000200.000,3346.8781,N,08424.0594,W,1,06,2.9,326.6,M,-30.8,M,,0000*69
$GPGGA,000300.000,3346.8781,N,08424.0594,W,1,06,2.9,326.6,M,-30.8,M,,0000*69
$GPGGA,000400.000,3346.8781,N,08424.0594,W,1,06,2.9,326.6,M,-30.8,M,,0000*69
$GPGGA,000500.000,3346.8781,N,08424.0594,W,1,06,2.9,326.6,M,-30.8,M,,0000*69
$GPGGA,000600.000,3346.8781,N,08424.0594,W,1,06,2.9,326.6,M,-30.8,M,,0000*69
$GPGGA,000700.000,3346.8781,N,08424.0594,W,1,06,2.9,326.6,M,-30.8,M,,0000*69
$GPGGA,000800.000,3346.8781,N,08424.0594,W,1,06,2.9,326.6,M,-30.8,M,,0000*69
$GPGGA,000900.000,3346.8781,N,08424.0594,W,1,06,2.9,326.6,M,-30.8,M,,0000*69
$GPGGA,001000.000,3346.8781,N,08424.0594,W,1,06,2.9,326.6,M,-30.8,M,,0000*69
$GPGGA,001100.000,3346.8781,N,08424.0594,W,1,06,2.9,326.6,M,-30.8,M,,0000*69
$GPGGA,001200.000,3346.8781,N,08424.0594,W,1,06,2.9,326.6,M,-30.8,M,,0000*69
$GPGGA,001300.000,3346.8781,N,08424.0594,W,1,06,2.9,326.6,M,-30.8,M,,0000*69
$GPGGA,001400.000,3346.8781,N,08424.0594,W,1,06,2.9,326.6,M,-30.8,M,,0000*69
$GPGGA,001500.000,3346.8781,N,08424.0594,W,1,06,2.9,326.6,M,-30.8,M,,0000*69
$GPGGA,001600.000,3346.8781,N,08424.0594,W,1,06,2.9,326.6,M,-30.8,M,,0000*69
$GPGGA,001700.000,3346.8781,N,08424.0594,W,1,06,2.9,326.6,M,-30.8,M,,0000*69
$GPGGA,001800.000,3346.8781,N,08424.0594,W,1,06,2.9,326.6,M,-30.8,M,,0000*69
$GPGGA,001900.000,3346.8781,N,08424.0594,W,1,06,2.9,326.6,M,-30.8,M,,0000*69
$GPGGA,002000.000,3346.8781,N,08424.0594,W,1,06,2.9,326.6,M,-30.8,M,,0000*69
$GPGGA,002100.000,3346.8781,N,08424.0594,W,1,06,2.9,326.6,M,-30.8,M,,0000*69
$GPGGA,002200.000,3346.8781,N,08424.0594,W,1,06,2.9,326.6,M,-30.8,M,,0000*69
$GPGGA,002300.000,3346.8781,N,08424.0594,W,1,06,2.9,326.6,M,-30.8,M,,0000*69
$GPGGA,002400.000,3346.8781,N,08424.0594,W,1,06,2.9,326.6,M,-30.8,M,,0000*69
$GPGGA,002500.000,3346.8781,N,08424.0594,W,1,06,2.9,326.6,M,-30.8,M,,0000*69
$GPGGA,002600.000,3346.8781,N,08424.0594,W,1,06,2.9,326.6,M,-30.8,M,,0000*69
$GPGGA,002700.000,3346.8781,N,08424.0594,W,1,06,2.9,326.6,M,-30.8,M,,0000*69
$GPGGA,002800.000,3346.8781,N,08424.0594,W,1,06,2.9,326.6,M,-30.8,M,,0000*69
$GPGGA,002900.000,3346.8781,N,08424.0594,W,1,06,2.9,326.6,M,-30.8,M,,0000*69
$GPGGA,003000.000,3346.8781,N,08424.0594,W,1,06,2.9,326.6,M,-30.8,M,,0000*69
$GPGGA,003100.000,3346.8781,N,08424.0594,W,1,06,2.9,326.6,M,-30.8,M,,0000*69
$GPGGA,003200.000,3346.8781,N,08424.0594,W,1,06,2.9,326.6,M,-30.8,M,,0000*69
$GPGGA,003300.000,3346.8781,N,08424.0594,W,1,06,2.9,326.6,M,-30.8,M,,0000*69
$GPGGA,003400.000,3346.8781,N,08424.0594,W,1,06,2.9,326.6,M,-30.8,M,,0000*69
$GPGGA,003500.000,3346.8781,N,08424.0594,W,1,06,2.9,326.6,M,-30.8,M,,0000*69
$GPGGA,003600.000,3346.8781,N,08424.0594,W,1,06,2.9,326.6,M,-30.8,M,,0000*69
$GPGGA,003700.000,3346.8781,N,08424.0594,W,1,06,2.9,326.6,M,-30.8,M,,0000*69
$GPGGA,003800.000,3346.8781,N,08424.0594,W,1,06,2.9,326.6,M,-30.8,M,,0000*69
$GPGGA,003900.000,3346.8781,N,08424.0594,W,1,06,2.9,326.6,M,-30.8,M,,0000*69
$GPGGA,004000.000,3346.8781,N,08424.0594,W,1,06,2.9,326.6,M,-30.8,M,,0000*69
$GPGGA,004100.000,3346.8781,N,08424.0594,W,1,06,2.9,326.6,M,-30.8,M,,0000*69
$GPGGA,004200.000,3346.8781,N,08424.0594,W,1,06,2.9,326.6,M,-30.8,M,,0000*69
$GPGGA,004300.000,3346.8781,N,08424.0594,W,1,06,2.9,326.6,M,-30.8,M,,0000*69
$GPGGA,004400.000,3346.8781,N,08424.0594,W,1,06,2.9,326.6,M,-30.8,M,,0000*69
$GPGGA,004500.000,3346.8781,N,08424.0594,W,1,06,2.9,326.6,M,-30.8,M,,0000*69
$GPGGA,004600.000,3346.8781,N,08424.0594,W,1,06,2.9,326.6,M,-30.8,M,,0000*69
$GPGGA,004700.000,3346.8781,N,08424.0594,W,1,06,2.9,326.6,M,-30.8,M,,0000*69
$GPGGA,004800.000,3346.8781,N,08424.0594,W,1,06,2.9,326.6,M,-30.8,M,,0000*69
$GPGGA,004900.000,3346.8781,N,08424.0594,W,1,06,2.9,326.6,M,-30.8,M,,0000*69
$GPGGA,005000.000,3346.8781,N,08424.0594,W,1,06,2.9,326.6,M,-30.8,M,,0000*69
$GPGGA,005100.000,3346.8781,N,08424.0594,W,1,06,2.9,326.6,M,-30.8,M,,0000*69
$GPGGA,005200.000,3346.8781,N,08424.0594,W,1,06,2.9,326.6,M,-30.8,M,,0000*69
$GPGGA,005300.000,3346.8781,N,08424.0594,W,1,06,2.9,326.6,M,-30.8,M,,0000*69
$GPGGA,005400.000,3346.8781,N,08424.0594,W,1,06,2.9,326.6,M,-30.8,M,,0000*69
$GPGGA,005500.000,3346.8781,N,08424.0594,W,1,06,2.9,326.6,M,-30.8,M,,0000*69
$GPGGA,005600.000,3346.8781,N,08424.0594,W,1,06,2.9,326.6,M,-30.8,M,,0000*69
$GPGGA,005700.000,3346.8781,N,08424.0594,W,1,06,2.9,326.6,M,-30.8,M,,0000*69
$GPGGA,005800.000,3346.8781,N,08424.0594,W,1,06,2.9,326.6,M,-30.8,M,,0000*69
$GPGGA,005900.000,3346.8781,N,08424.0594,W,1,06,2.9,326.6,M,-30.8,M,,0000*69
$GPGGA,010000.000,3346.8781,N,08424.0594,W,1,06,2.9,326.6,M,-30.8,M,,0000*69
$GPGGA,010100.000,3346.8781,N,08424.0594,W,1,06,2.9,326.6,M,-30.8,M,,0000*69
$GPGGA,010200.000,3346.8781,N,08424.0594,W,1,06,2.9,326.6,M,-30.8,M,,0000*69
$GPGGA,010300.000,3346.8781,N,08424.0594,W,1,06,2.9,326.6,M,-30.8,M,,0000*69
$GPGGA,010400.000,3346.8781,N,08424.0594,W,1,06,2.9,326.6,M,-30.8,M,,0000*69
$GPGGA,010500.000,3346.8781,N,08424.0594,W,1,06,2.9,326.6,M,-30.8,M,,0000*69
$GPGGA,010600.000,3346.8781,N,08424.0594,W,1,06,2.9,326.6,M,-30.8,M,,0000*69
$GPGGA,010700.000,3346.8781,N,08424.0594,W,1,06,2.9,326.6,M,-30.8,M,,0000*69
$GPGGA,010800.000,3346.8781,N,08424.0594,W,1,06,2.9,326.6,M,-30.8,M,,0000*69
$GPGGA,010900.000,3346.8781,N,08424.0594,W,1,06,2.9,326.6,M,-30.8,M,,0000*69
$GPGGA,011000.000,3346.8781,N,08424.0594,W,1,06,2.9,326.6,M,-30.8,M,,0000*69
$GPGGA,011100.000,3346.8781,N,08424.0594,W,1,06,2.9,326.6,M,-30.8,M,,0000*69
$GPGGA,011200.000,3346.8781,N,08424.0594,W,1,06,2.9,326.6,M,-30.8,M,,0000*69
$GPGGA,011300.000,3346.8781,N,08424.0594,W,1,06,2.9,326.6,M,-30.8,M,,0000*69
$GPGGA,011400.000,3346.8781,N,08424.0594,W,1,06,2.9,326.6,M,-30.8,M,,0000*69
$GPGGA,011500.000,3346.8781,N,08424.0594,W,1,06,2.9,326.6,M,-30.8,M,,0000*69
$GPGGA,011600.000,3346.8781,N,08424.0594,W,1,06,2.9,326.6,M,-30.8,M,,0000*69
$GPGGA,011700.000,3346.8781,N,08424.0594,W,1,06,2.9,326.6,M,-30.8,M,,0000*69
$GPGGA,011800.000,3346.8781,N,08424.0594,W,1,06,2.9,326.6,M,-30.8,M,,0000*69
$GPGGA,011900.000,3346.8781,N,08424.0594,W,1,06,2.9,326.6,M,-30.8,M,,0000*69
$GPGGA,012000.000,3346.8781,N,08424.0594,W,1,06,2.9,326.6,M,-30.8,M,,0000*69
$GPGGA,012100.000,3346.8781,N,08424.0594,W,1,06,2.9,326.6,M,-30.8,M,,0000*69
$GPGGA,012200.000,3346.8781,N,08424.0594,W,1,06,2.9,326.6,M,-30.8,M,,0000*69
$GPGGA,012300.000,3346.8781,N,08424.0594,W,1,06,2.9,326.6,M,-30.8,M,,0000*69
$GPGGA,012400.000,3346.8781,N,08424.0594,W,1,06,2.9,326.6,M,-30.8,M,,0000*69
$GPGGA,012500.000,3346.8781,N,08424.0594,W,1,06,2.9,326.6,M,-30.8,M,,0000*69
$GPGGA,012600.000,3346.8781,N,08424.0594,W,1,06,2.9,326.6,M,-30.8,M,,0000*69
$GPGGA,012700.000,3346.8781,N,08424.0594,W,1,06,2.9,326.6,M,-30.8,M,,0000*69
$GPGGA,012800.000,3346.8781,N,08424.0594,W,1,06,2.9,326.6,M,-30.8,M,,0000*69
$GPGGA,012900.000,3346.8781,N,08424.0594,W,1,06,2.9,326.6,M,-30.8,M,,0000*69
$GPGGA,013000.000,3346.8781,N,08424.0594,W,1,06,2.9,326.6,M,-30.8,M,,0000*69
$GPGGA,013100.000,3346.8781,N,08424.0594,W,1,06,2.9,326.6,M,-30.8,M,,0000*69
$GPGGA,013200.000,3346.8781,N,08424.0594,W,1,06,2.9,326.6,M,-30.8,M,,0000*69
$GPGGA,013300.000,3346.8781,N,08424.0594,W,1,06,2.9,326.6,M,-30.8,M,,0000*69
$GPGGA,013400.000,3346.8781,N,08424.0594,W,1,06,2.9,326.6,M,-30.8,M,,0000*69
$GPGGA,013500.000,3346.8781,N,08424.0594,W,1,06,2.9,326.6,M,-30.8,M,,0000*69
$GPGGA,013600.000,3346.8781,N,08424.0594,W,1,06,2.9,326.6,M,-30.8,M,,0000*69
$GPGGA,013700.000,3346.8781,N,08424.0594,W,1,06,2.9,326.6,M,-30.8,M,,0000*69
$GPGGA,013800.000,3346.8781,N,08424.0594,W,1,06,2.9,326.6,M,-30.8,M,,0000*69
$GPGGA,013900.000,3346.8781,N,08424.0594,W,1,06,2.9,326.6,M,-30.8,M,,0000*69
$GPGGA,014000.000,3346.8781,N,08424.0594,W,1,06,2.9,326.6,M,-30.8,M,,0000*69
$GPGGA,014100.000,3346.8781,N,08424.0594,W,1,06,2.9,326.6,M,-30.8,M,,0000*69
$GPGGA,014200.000,3346.8781,N,08424.0594,W,1,06,2.9,326.6,M,-30.8,M,,0000*69
$GPGGA,014300.000,3346.8781,N,08424.0594,W,1,06,2.9,326.6,M,-30.8,M,,0000*69
$GPGGA,014400.000,3346.8781,N,08424.0594,W,1,06,2.9,326.6,M,-30.8,M,,0000*69
$GPGGA,014500.000,3346.8781,N,08424.0594,W,1,06,2.9,326.6,M,-30.8,M,,0000*69
$GPGGA,014600.000,3346.8781,N,08424.0594,W,1,06,2.9,326.6,M,-30.8,M,,0000*69
$GPGGA,014700.000,3346.8781,N,08424.0594,W,1,06,2.9,326.6,M,-30.8,M,,0000*69
$GPGGA,014800.000,3346.8781,N,08424.0594,W,1,06,2.9,326.6,M,-30.8,M,,0000*69
$GPGGA,014900.000,3346.8781,N,08424.0594,W,1,06,2.9,326.6,M,-30.8,M,,0000*69
$GPGGA,015000.000,3346.8781,N,08424.0594,W,1,06,2.9,326.6,M,-30.8,M,,0000*69
$GPGGA,015100.000,3346.8781,N,08424.0594,W,1,06,2.9,326.6,M,-30.8,M,,0000*69
$GPGGA,015200.000,3346.8781,N,08424.0594,W,1,06,2.9,326.6,M,-30.8,M,,0000*69
$GPGGA,015300.000,3346.8781,N,08424.0594,W,1,06,2.9,326.6,M,-30.8,M,,0000*69
$GPGGA,015400.000,3346.8781,N,08424.0594,W,1,06,2.9,326.6,M,-30.8,M,,0000*69
$GPGGA,015500.000,3346.8781,N,08424.0594,W,1,06,2.9,326.6,M,-30.8,M,,0000*69
$GPGGA,015600.000,3346.8781,N,08424.0594,W,1,06,2.9,326.6,M,-30.8,M,,0000*69
$GPGGA,015700.000,3346.8781,N,08424.0594,W,1,06,2.9,326.6,M,-30.8,M,,0000*69
$GPGGA,015800.000,3346.8781,N,08424.0594,W,1,06,2.9,326.6,M,-30.8,M,,0000*69
$GPGGA,015900.000,3346.8781,N,08424.0594,W,1,06,2.9,326.6,M,-30.8,M,,0000*69
$GPGGA,020000.000,3346.8781,N,08424.0594,W,1,06,2.9,326.6,M,-30.8,M,,0000*69
$GPGGA,020100.000,3346.8781,N,08424.0594,W,1,06,2.9,326.6,M,-30.8,M,,0000*69
$GPGGA,020200.000,3346.8781,N,08424.0594,W,1,06,2.9,326.6,M,-30.8,M,,0000*69
$GPGGA,020300.000,3346.8781,N,08424.0594,W,1,06,2.9,326.6,M,-30.8,M,,0000*69
$GPGGA,020400.000,3346.8781,N,08424.0594,W,1,06,2.9,326.6,M,-30.8,M,,0000*69
$GPGGA,020500.000,3346.8781,N,08424.0594,W,1,06,2.9,326.6,M,-30.8,M,,0000*69
$GPGGA,020600.000,3346.8781,N,08424.0594,W,1,06,2.9,326.6,M,-30.8,M,,0000*69
$GPGGA,020700.000,3346.8781,N,08424.0594,W,1,06,2.9,326.6,M,-30.8,M,,0000*69
$GPGGA,020800.000,3346.8781,N,08424.0594,W,1,06,2.9,326.6,M,-30.8,M,,0000*69
$GPGGA,020900.000,3346.8781,N,08424.0594,W,1,06,2.9,326.6,M,-30.8,M,,0000*69
$GPGGA,021000.000,3346.8781,N,08424.0594,W,1,06,2.9,326.6,M,-30.8,M,,0000*69
$GPGGA,021100.000,3346.8781,N,08424.0594,W,1,06,2.9,326.6,M,-30.8,M,,0000*69
$GPGGA,021200.000,3346.8781,N,08424.0594,W,1,06,2.9,326.6,M,-30.8,M,,0000*69
$GPGGA,021300.000,3346.8781,N,08424.0594,W,1,06,2.9,326.6,M,-30.8,M,,0000*69
$GPGGA,021400.000,3346.8781,N,08424.0594,W,1,06,2.9,326.6,M,-30.8,M,,0000*69
$GPGGA,021500.000,3346.8781,N,08424.0594,W,1,06,2.9,326.6,M,-30.8,M,,0000*69
$GPGGA,021600.000,3346.8781,N,08424.0594,W,1,06,2.9,326.6,M,-30.8,M,,0000*69
$GPGGA,021700.000,3346.8781,N,08424.0594,W,1,06,2.9,326.6,M,-30.8,M,,0000*69
$GPGGA,021800.000,3346.8781,N,08424.0594,W,1,06,2.9,326.6,M,-30.8,M,,0000*69
$GPGGA,021900.000,3346.8781,N,08424.0594,W,1,06,2.9,326.6,M,-30.8,M,,0000*69
$GPGGA,022000.000,3346.8781,N,08424.0594,W,1,06,2.9,326.6,M,-30.8,M,,0000*69
$GPGGA,022100.000,3346.8781,N,08424.0594,W,1,06,2.9,326.6,M,-30.8,M,,0000*69
$GPGGA,022200.000,3346.8781,N,08424.0594,W,1,06,2.9,326.6,M,-30.8,M,,0000*69
$GPGGA,022300.000,3346.8781,N,08424.0594,W,1,06,2.9,326.6,M,-30.8,M,,0000*69
$GPGGA,022400.000,3346.8781,N,08424.0594,W,1,06,2.9,326.6,M,-30.8,M,,0000*69
$GPGGA,022500.000,3346.8781,N,08424.0594,W,1,06,2.9,326.6,M,-30.8,M,,0000*69
$GPGGA,022600.000,3346.8781,N,08424.0594,W,1,06,2.9,326.6,M,-30.8,M,,0000*69
$GPGGA,022700.000,3346.8781,N,08424.0594,W,1,06,2.9,326.6,M,-30.8,M,,0000*69
$GPGGA,022800.000,3346.8781,N,08424.0594,W,1,06,2.9,326.6,M,-30.8,M,,0000*69
$GPGGA,022900.000,3346.8781,N,08424.0594,W,1,06,2.9,326.6,M,-30.8,M,,0000*69
$GPGGA,023000.000,3346.8781,N,08424.0594,W,1,06,2.9,326.6,M,-30.8,M,,0000*69
$GPGGA,023100.000,3346.8781,N,08424.0594,W,1,06,2.9,326.6,M,-30.8,M,,0000*69
$GPGGA,023200.000,3346.8781,N,08424.0594,W,1,06,2.9,326.6,M,-30.8,M,,0000*69
$GPGGA,023300.000,3346.8781,N,08424.0594,W,1,06,2.9,326.6,M,-30.8,M,,0000*69
$GPGGA,023400.000,3346.8781,N,08424.0594,W,1,06,2.9,326.6,M,-30.8,M,,0000*69
$GPGGA,023500.000,3346.8781,N,08424.0594,W,1,06,2.9,326.6,M,-30.8,M,,0000*69
$GPGGA,023600.000,3346.8781,N,08424.0594,W,1,06,2.9,326.6,M,-30.8,M,,0000*69
$GPGGA,023700.000,3346.8781,N,08424.0594,W,1,06,2.9,326.6,M,-30.8,M,,0000*69
$GPGGA,023800.000,3346.8781,N,08424.0594,W,1,06,2.9,326.6,M,-30.8,M,,0000*69
$GPGGA,023900.000,3346.8781,N,08424.0594,W,1,06,2.9,326.6,M,-30.8,M,,0000*69
$GPGGA,024000.000,3346.8781,N,08424.0594,W,1,06,2.9,326.6,M,-30.8,M,,0000*69
$GPGGA,024100.000,3346.8781,N,08424.0594,W,1,06,2.9,326.6,M,-30.8,M,,0000*69
$GPGGA,024200.000,3346.8781,N,08424.0594,W,1,06,2.9,326.6,M,-30.8,M,,0000*69
$GPGGA,024300.000,3346.8781,N,08424.0594,W,1,06,2.9,326.6,M,-30.8,M,,0000*69
$GPGGA,024400.000,3346.8781,N,08424.0594,W,1,06,2.9,326.6,M,-30.8,M,,0000*69
$GPGGA,024500.000,3346.8781,N,08424.0594,W,1,06,2.9,326.6,M,-30.8,M,,0000*69
$GPGGA,024600.000,3346.8781,N,08424.0594,W,1,06,2.9,326.6,M,-30.8,M,,0000*69
$GPGGA,024700.000,3346.8781,N,08424.0594,W,1,06,2.9,326.6,M,-30.8,M,,0000*69
$GPGGA,024800.000,3346.8781,N,08424.0594,W,1,06,2.9,326.6,M,-30.8,M,,0000*69
$GPGGA,024900.000,3346.8781,N,08424.0594,W,1,06,2.9,326.6,M,-30.8,M,,0000*69
$GPGGA,025000.000,3346.8781,N,08424.0594,W,1,06,2.9,326.6,M,-30.8,M,,0000*69
$GPGGA,025100.000,3346.8781,N,08424.0594,W,1,06,2.9,326.6,M,-30.8,M,,0000*69
$GPGGA,025200.000,3346.8781,N,08424.0594,W,1,06,2.9,326.6,M,-30.8,M,,0000*69
$GPGGA,025300.000,3346.8781,N,08424.0594,W,1,06,2.9,326.6,M,-30.8,M,,0000*69
$GPGGA,025400.000,3346.8781,N,08424.0594,W,1,06,2.9,326.6,M,-30.8,M,,0000*69
$GPGGA,025500.000,3346.8781,N,08424.0594,W,1,06,2.9,326.6,M,-30.8,M,,0000*69
$GPGGA,025600.000,3346.8781,N,08424.0594,W,1,06,2.9,326.6,M,-30.8,M,,0000*69
$GPGGA,025700.000,3346.8781,N,08424.0594,W,1,06,2.9,326.6,M,-30.8,M,,0000*69
$GPGGA,025800.000,3346.8781,N,08424.0594,W,1,06,2.9,326.6,M,-30.8,M,,0000*69
$GPGGA,025900.000,3346.8781,N,08424.0594,W,1,06,2.9,326.6,M,-30.8,M,,0000*69
$GPGGA,030000.000,3346.8781,N,08424.0594,W,1,06,2.9,326.6,M,-30.8,M,,0000*69
$GPGGA,030100.000,3346.8781,N,08424.0594,W,1,06,2.9,326.6,M,-30.8,M,,0000*69
$GPGGA,030200.000,3346.8781,N,08424.0594,W,1,06,2.9,326.6,M,-30.8,M,,0000*69
$GPGGA,030300.000,3346.8781,N,08424.0594,W,1,06,2.9,326.6,M,-30.8,M,,0000*69
$GPGGA,030400.000,3346.8781,N,08424.0594,W,1,06,2.9,326.6,M,-30.8,M,,0000*69
$GPGGA,030500.000,3346.8781,N,08424.0594,W,1,06,2.9,326.6,M,-30.8,M,,0000*69
$GPGGA,030600.000,3346.8781,N,08424.0594,W,1,06,2.9,326.6,M,-30.8,M,,0000*69
$GPGGA,030700.000,3346.8781,N,08424.0594,W,1,06,2.9,326.6,M,-30.8,M,,0000*69
$GPGGA,030800.000,3346.8781,N,08424.0594,W,1,06,2.9,326.6,M,-30.8,M,,0000*69
$GPGGA,030900.000,3346.8781,N,08424.0594,W,1,06,2.9,326.6,M,-30.8,M,,0000*69
$GPGGA,031000.000,3346.8781,N,08424.0594,W,1,06,2.9,326.6,M,-30.8,M,,0000*69
$GPGGA,031100.000,3346.8781,N,08424.0594,W,1,06,2.9,326.6,M,-30.8,M,,0000*69
$GPGGA,031200.000,3346.8781,N,08424.0594,W,1,06,2.9,326.6,M,-30.8,M,,0000*69
$GPGGA,031300.000,3346.8781,N,08424.0594,W,1,06,2.9,326.6,M,-30.8,M,,0000*69
$GPGGA,031400.000,3346.8781,N,08424.0594,W,1,06,2.9,326.6,M,-30.8,M,,0000*69
$GPGGA,031500.000,3346.8781,N,08424.0594,W,1,06,2.9,326.6,M,-30.8,M,,0000*69
$GPGGA,031600.000,3346.8781,N,08424.0594,W,1,06,2.9,326.6,M,-30.8,M,,0000*69
$GPGGA,031700.000,3346.8781,N,08424.0594,W,1,06,2.9,326.6,M,-30.8,M,,0000*69
$GPGGA,031800.000,3346.8781,N,08424.0594,W,1,06,2.9,326.6,M,-30.8,M,,0000*69
$GPGGA,031900.000,3346.8781,N,08424.0594,W,1,06,2.9,326.6,M,-30.8,M,,0000*69
$GPGGA,032000.000,3346.8781,N,08424.0594,W,1,06,2.9,326.6,M,-30.8,M,,0000*69
$GPGGA,032100.000,3346.8781,N,08424.0594,W,1,06,2.9,326.6,M,-30.8,M,,0000*69
$GPGGA,032200.000,3346.8781,N,08424.0594,W,1,06,2.9,326.6,M,-30.8,M,,0000*69
$GPGGA,032300.000,3346.8781,N,08424.0594,W,1,06,2.9,326.6,M,-30.8,M,,0000*69
$GPGGA,032400.000,3346.8781,N,08424.0594,W,1,06,2.9,326.6,M,-30.8,M,,0000*69
$GPGGA,032500.000,3346.8781,N,08424.0594,W,1,06,2.9,326.6,M,-30.8,M,,0000*69
$GPGGA,032600.000,3346.8781,N,08424.0594,W,1,06,2.9,326.6,M,-30.8,M,,0000*69
$GPGGA,032700.000,3346.8781,N,08424.0594,W,1,06,2.9,326.6,M,-30.8,M,,0000*69
$GPGGA,032800.000,3346.8781,N,08424.0594,W,1,06,2.9,326.6,M,-30.8,M,,0000*69
$GPGGA,032900.000,3346.8781,N,08424.0594,W,1,06,2.9,326.6,M,-30.8,M,,0000*69
$GPGGA,033000.000,3346.8781,N,08424.0594,W,1,06,2.9,326.6,M,-30.8,M,,0000*69
$GPGGA,033100.000,3346.8781,N,08424.0594,W,1,06,2.9,326.6,M,-30.8,M,,0000*69
$GPGGA,033200.000,3346.8781,N,08424.0594,W,1,06,2.9,326.6,M,-30.8,M,,0000*69
$GPGGA,033300.000,3346.8781,N,08424.0594,W,1,06,2.9,326.6,M,-30.8,M,,0000*69
$GPGGA,033400.000,3346.8781,N,08424.0594,W,1,06,2.9,326.6,M,-30.8,M,,0000*69
$GPGGA,033500.000,3346.8781,N,08424.0594,W,1,06,2.9,326.6,M,-30.8,M,,0000*69
$GPGGA,033600.000,3346.8781,N,08424.0594,W,1,06,2.9,326.6,M,-30.8,M,,0000*69
$GPGGA,033700.000,3346.8781,N,08424.0594,W,1,06,2.9,326.6,M,-30.8,M,,0000*69
$GPGGA,033800.000,3346.8781,N,08424.0594,W,1,06,2.9,326.6,M,-30.8,M,,0000*69
$GPGGA,033900.000,3346.8781,N,08424.0594,W,1,06,2.9,326.6,M,-30.8,M,,0000*69
$GPGGA,034000.000,3346.8781,N,08424.0594,W,1,06,2.9,326.6,M,-30.8,M,,0000*69
$GPGGA,034100.000,3346.8781,N,08424.0594,W,1,06,2.9,326.6,M,-30.8,M,,0000*69
$GPGGA,034200.000,3346.8781,N,08424.0594,W,1,06,2.9,326.6,M,-30.8,M,,0000*69
$GPGGA,034300.000,3346.8781,N,08424.0594,W,1,06,2.9,326.6,M,-30.8,M,,0000*69
$GPGGA,034400.000,3346.8781,N,08424.0594,W,1,06,2.9,326.6,M,-30.8,M,,0000*69
$GPGGA,034500.000,3346.8781,N,08424.0594,W,1,06,2.9,326.6,M,-30.8,M,,0000*69
$GPGGA,034600.000,3346.8781,N,08424.0594,W,1,06,2.9,326.6,M,-30.8,M,,0000*69
$GPGGA,034700.000,3346.8781,N,08424.0594,W,1,06,2.9,326.6,M,-30.8,M,,0000*69
$GPGGA,034800.000,3346.8781,N,08424.0594,W,1,06,2.9,326.6,M,-30.8,M,,0000*69
$GPGGA,034900.000,3346.8781,N,08424.0594,W,1,06,2.9,326.6,M,-30.8,M,,0000*69
$GPGGA,035000.000,3346.8781,N,08424.0594,W,1,06,2.9,326.6,M,-30.8,M,,0000*69
$GPGGA,035100.000,3346.8781,N,08424.0594,W,1,06,2.9,326.6,M,-30.8,M,,0000*69
$GPGGA,035200.000,3346.8781,N,08424.0594,W,1,06,2.9,326.6,M,-30.8,M,,0000*69
$GPGGA,035300.000,3346.8781,N,08424.0594,W,1,06,2.9,326.6,M,-30.8,M,,0000*69
$GPGGA,035400.000,3346.8781,N,08424.0594,W,1,06,2.9,326.6,M,-30.8,M,,0000*69
$GPGGA,035500.000,3346.8781,N,08424.0594,W,1,06,2.9,326.6,M,-30.8,M,,0000*69
$GPGGA,035600.000,3346.8781,N,08424.0594,W,1,06,2.9,326.6,M,-30.8,M,,0000*69
$GPGGA,035700.000,3346.8781,N,08424.0594,W,1,06,2.9,326.6,M,-30.8,M,,0000*69
$GPGGA,035800.000,3346.8781,N,08424.0594,W,1,06,2.9,326.6,M,-30.8,M,,0000*69
$GPGGA,035900.000,3346.8781,N,08424.0594,W,1,06,2.9,326.6,M,-30.8,M,,0000*69
$GPGGA,040000.000,3346.8781,N,08424.0594,W,1,06,2.9,326.6,M,-30.8,M,,0000*69
$GPGGA,040100.000,3346.8781,N,08424.0594,W,1,06,2.9,326.6,M,-30.8,M,,0000*69
$GPGGA,040200.000,3346.8781,N,08424.0594,W,1,06,2.9,326.6,M,-30.8,M,,0000*69
$GPGGA,040300.000,3346.8781,N,08424.0594,W,1,06,2.9,326.6,M,-30.8,M,,0000*69
$GPGGA,040400.000,3346.8781,N,08424.0594,W,1,06,2.9,326.6,M,-30.8,M,,0000*69
$GPGGA,040500.000,3346.8781,N,08424.0594,W,1,06,2.9,326.6,M,-30.8,M,,0000*69
$GPGGA,040600.000,3346.8781,N,08424.0594,W,1,06,2.9,326.6,M,-30.8,M,,0000*69
$GPGGA,040700.000,3346.8781,N,08424.0594,W,1,06,2.9,326.6,M,-30.8,M,,0000*69
$GPGGA,040800.000,3346.8781,N,08424.0594,W,1,06,2.9,326.6,M,-30.8,M,,0000*69
$GPGGA,040900.000,3346.8781,N,08424.0594,W,1,06,2.9,326.6,M,-30.8,M,,0000*69
$GPGGA,041000.000,3346.8781,N,08424.0594,W,1,06,2.9,326.6,M,-30.8,M,,0000*69
$GPGGA,041100.000,3346.8781,N,08424.0594,W,1,06,2.9,326.6,M,-30.8,M,,0000*69
$GPGGA,041200.000,3346.8781,N,08424.0594,W,1,06,2.9,326.6,M,-30.8,M,,0000*69
$GPGGA,041300.000,3346.8781,N,08424.0594,W,1,06,2.9,326.6,M,-30.8,M,,0000*69
$GPGGA,041400.000,3346.8781,N,08424.0594,W,1,06,2.9,326.6,M,-30.8,M,,0000*69
$GPGGA,041500.000,3346.8781,N,08424.0594,W,1,06,2.9,326.6,M,-30.8,M,,0000*69
$GPGGA,041600.000,3346.8781,N,08424.0594,W,1,06,2.9,326.6,M,-30.8,M,,0000*69
$GPGGA,041700.000,3346.8781,N,08424.0594,W,1,06,2.9,326.6,M,-30.8,M,,0000*69
$GPGGA,041800.000,3346.8781,N,08424.0594,W,1,06,2.9,326.6,M,-30.8,M,,0000*69
$GPGGA,041900.000,3346.8781,N,08424.0594,W,1,06,2.9,326.6,M,-30.8,M,,0000*69
$GPGGA,042000.000,3346.8781,N,08424.0594,W,1,06,2.9,326.6,M,-30.8,M,,0000*69
$GPGGA,042100.000,3346.8781,N,08424.0594,W,1,06,2.9,326.6,M,-30.8,M,,0000*69
$GPGGA,042200.000,3346.8781,N,08424.0594,W,1,06,2.9,326.6,M,-30.8,M,,0000*69
$GPGGA,042300.000,3346.8781,N,08424.0594,W,1,06,2.9,326.6,M,-30.8,M,,0000*69
$GPGGA,042400.000,3346.8781,N,08424.0594,W,1,06,2.9,326.6,M,-30.8,M,,0000*69
$GPGGA,042500.000,3346.8781,N,08424.0594,W,1,06,2.9,326.6,M,-30.8,M,,0000*69
$GPGGA,042600.000,3346.8781,N,08424.0594,W,1,06,2.9,326.6,M,-30.8,M,,0000*69
$GPGGA,042700.000,3346.8781,N,08424.0594,W,1,06,2.9,326.6,M,-30.8,M,,0000*69
$GPGGA,042800.000,3346.8781,N,08424.0594,W,1,06,2.9,326.6,M,-30.8,M,,0000*69
$GPGGA,042900.000,3346.8781,N,08424.0594,W,1,06,2.9,326.6,M,-30.8,M,,0000*69
$GPGGA,043000.000,3346.8781,N,08424.0594,W,1,06,2.9,326.6,M,-30.8,M,,0000*69
$GPGGA,043100.000,3346.8781,N,08424.0594,W,1,06,2.9,326.6,M,-30.8,M,,0000*69
$GPGGA,043200.000,3346.8781,N,08424.0594,W,1,06,2.9,326.6,M,-30.8,M,,0000*69
$GPGGA,043300.000,3346.8781,N,08424.0594,W,1,06,2.9,326.6,M,-30.8,M,,0000*69
$GPGGA,043400.000,3346.8781,N,08424.0594,W,1,06,2.9,326.6,M,-30.8,M,,0000*69
$GPGGA,043500.000,3346.8781,N,08424.0594,W,1,06,2.9,326.6,M,-30.8,M,,0000*69
$GPGGA,043600.000,3346.8781,N,08424.0594,W,1,06,2.9,326.6,M,-30.8,M,,0000*69
$GPGGA,043700.000,3346.8781,N,08424.0594,W,1,06,2.9,326.6,M,-30.8,M,,0000*69
$GPGGA,043800.000,3346.8781,N,08424.0594,W,1,06,2.9,326.6,M,-30.8,M,,0000*69
$GPGGA,043900.000,3346.8781,N,08424.0594,W,1,06,2.9,326.6,M,-30.8,M,,0000*69
$GPGGA,044000.000,3346.8781,N,08424.0594,W,1,06,2.9,326.6,M,-30.8,M,,0000*69
$GPGGA,044100.000,3346.8781,N,08424.0594,W,1,06,2.9,326.6,M,-30.8,M,,0000*69
$GPGGA,044200.000,3346.8781,N,08424.0594,W,1,06,2.9,326.6,M,-30.8,M,,0000*69
$GPGGA,044300.000,3346.8781,N,08424.0594,W,1,06,2.9,326.6,M,-30.8,M,,0000*69
$GPGGA,044400.000,3346.8781,N,08424.0594,W,1,06,2.9,326.6,M,-30.8,M,,0000*69
$GPGGA,044500.000,3346.8781,N,08424.0594,W,1,06,2.9,326.6,M,-30.8,M,,0000*69
$GPGGA,044600.000,3346.8781,N,08424.0594,W,1,06,2.9,326.6,M,-30.8,M,,0000*69
$GPGGA,044700.000,3346.8781,N,08424.0594,W,1,06,2.9,326.6,M,-30.8,M,,0000*69
$GPGGA,044800.000,3346.8781,N,08424.0594,W,1,06,2.9,326.6,M,-30.8,M,,0000*69
$GPGGA,044900.000,3346.8781,N,08424.0594,W,1,06,2.9,326.6,M,-30.8,M,,0000*69
$GPGGA,045000.000,3346.8781,N,08424.0594,W,1,06,2.9,326.6,M,-30.8,M,,0000*69
$GPGGA,045100.000,3346.8781,N,08424.0594,W,1,06,2.9,326.6,M,-30.8,M,,0000*69
$GPGGA,045200.000,3346.8781,N,08424.0594,W,1,06,2.9,326.6,M,-30.8,M,,0000*69
$GPGGA,045300.000,3346.8781,N,08424.0594,W,1,06,2.9,326.6,M,-30.8,M,,0000*69
$GPGGA,045400.000,3346.8781,N,08424.0594,W,1,06,2.9,326.6,M,-30.8,M,,0000*69
$GPGGA,045500.000,3346.8781,N,08424.0594,W,1,06,2.9,326.6,M,-30.8,M,,0000*69
$GPGGA,045600.000,3346.8781,N,08424.0594,W,1,06,2.9,326.6,M,-30.8,M,,0000*69
$GPGGA,045700.000,3346.8781,N,08424.0594,W,1,06,2.9,326.6,M,-30.8,M,,0000*69
$GPGGA,045800.000,3346.8781,N,08424.0594,W,1,06,2.9,326.6,M,-30.8,M,,0000*69
$GPGGA,045900.000,3346.8781,N,08424.0594,W,1,06,2.9,326.6,M,-30.8,M,,0000*69
$GPGGA,050000.000,3346.8781,N,08424.0594,W,1,06,2.9,326.6,M,-30.8,M,,0000*69
$GPGGA,050100.000,3346.8781,N,08424.0594,W,1,06,2.9,326.6,M,-30.8,M,,0000*69
$GPGGA,050200.000,3346.8781,N,08424.0594,W,1,06,2.9,326.6,M,-30.8,M,,0000*69
$GPGGA,050300.000,3346.8781,N,08424.0594,W,1,06,2.9,326.6,M,-30.8,M,,0000*69
$GPGGA,050400.000,3346.8781,N,08424.0594,W,1,06,2.9,326.6,M,-30.8,M,,0000*69
$GPGGA,050500.000,3346.8781,N,08424.0594,W,1,06,2.9,326.6,M,-30.8,M,,0000*69
$GPGGA,050600.000,3346.8781,N,08424.0594,W,1,06,2.9,326.6,M,-30.8,M,,0000*69
$GPGGA,050700.000,3346.8781,N,08424.0594,W,1,06,2.9,326.6,M,-30.8,M,,0000*69
$GPGGA,050800.000,3346.8781,N,08424.0594,W,1,06,2.9,326.6,M,-30.8,M,,0000*69
$GPGGA,050900.000,3346.8781,N,08424.0594,W,1,06,2.9,326.6,M,-30.8,M,,0000*69
$GPGGA,051000.000,3346.8781,N,08424.0594,W,1,06,2.9,326.6,M,-30.8,M,,0000*69
$GPGGA,051100.000,3346.8781,N,08424.0594,W,1,06,2.9,326.6,M,-30.8,M,,0000*69
$GPGGA,051200.000,3346.8781,N,08424.0594,W,1,06,2.9,326.6,M,-30.8,M,,0000*69
$GPGGA,051300.000,3346.8781,N,08424.0594,W,1,06,2.9,326.6,M,-30.8,M,,0000*69
$GPGGA,051400.000,3346.8781,N,08424.0594,W,1,06,2.9,326.6,M,-30.8,M,,0000*69
$GPGGA,051500.000,3346.8781,N,08424.0594,W,1,06,2.9,326.6,M,-30.8,M,,0000*69
$GPGGA,051600.000,3346.8781,N,08424.0594,W,1,06,2.9,326.6,M,-30.8,M,,0000*69
$GPGGA,051700.000,3346.8781,N,08424.0594,W,1,06,2.9,326.6,M,-30.8,M,,0000*69
$GPGGA,051800.000,3346.8781,N,08424.0594,W,1,06,2.9,326.6,M,-30.8,M,,0000*69
$GPGGA,051900.000,3346.8781,N,08424.0594,W,1,06,2.9,326.6,M,-30.8,M,,0000*69
$GPGGA,052000.000,3346.8781,N,08424.0594,W,1,06,2.9,326.6,M,-30.8,M,,0000*69
$GPGGA,052100.000,3346.8781,N,08424.0594,W,1,06,2.9,326.6,M,-30.8,M,,0000*69
$GPGGA,052200.000,3346.8781,N,08424.0594,W,1,06,2.9,326.6,M,-30.8,M,,0000*69
$GPGGA,052300.000,3346.8781,N,08424.0594,W,1,06,2.9,326.6,M,-30.8,M,,0000*69
$GPGGA,052400.000,3346.8781,N,08424.0594,W,1,06,2.9,326.6,M,-30.8,M,,0000*69
$GPGGA,052500.000,3346.8781,N,08424.0594,W,1,06,2.9,326.6,M,-30.8,M,,0000*69
$GPGGA,052600.000,3346.8781,N,08424.0594,W,1,06,2.9,326.6,M,-30.8,M,,0000*69
$GPGGA,052700.000,3346.8781,N,08424.0594,W,1,06,2.9,326.6,M,-30.8,M,,0000*69
$GPGGA,052800.000,3346.8781,N,08424.0594,W,1,06,2.9,326.6,M,-30.8,M,,0000*69
$GPGGA,052900.000,3346.8781,N,08424.0594,W,1,06,2.9,326.6,M,-30.8,M,,0000*69
$GPGGA,053000.000,3346.8781,N,08424.0594,W,1,06,2.9,326.6,M,-30.8,M,,0000*69
$GPGGA,053100.000,3346.8781,N,08424.0594,W,1,06,2.9,326.6,M,-30.8,M,,0000*69
$GPGGA,053200.000,3346.8781,N,08424.0594,W,1,06,2.9,326.6,M,-30.8,M,,0000*69
$GPGGA,053300.000,3346.8781,N,08424.0594,W,1,06,2.9,326.6,M,-30.8,M,,0000*69
$GPGGA,053400.000,3346.8781,N,08424.0594,W,1,06,2.9,326.6,M,-30.8,M,,0000*69
$GPGGA,053500.000,3346.8781,N,08424.0594,W,1,06,2.9,326.6,M,-30.8,M,,0000*69
$GPGGA,053600.000,3346.8781,N,08424.0594,W,1,06,2.9,326.6,M,-30.8,M,,0000*69
$GPGGA,053700.000,3346.8781,N,08424.0594,W,1,06,2.9,326.6,M,-30.8,M,,0000*69
$GPGGA,053800.000,3346.8781,N,08424.0594,W,1,06,2.9,326.6,M,-30.8,M,,0000*69
$GPGGA,053900.000,3346.8781,N,08424.0594,W,1,06,2.9,326.6,M,-30.8,M,,0000*69
$GPGGA,054000.000,3346.8781,N,08424.0594,W,1,06,2.9,326.6,M,-30.8,M,,0000*69
$GPGGA,054100.000,3346.8781,N,08424.0594,W,1,06,2.9,326.6,M,-30.8,M,,0000*69
$GPGGA,054200.000,3346.8781,N,08424.0594,W,1,06,2.9,326.6,M,-30.8,M,,0000*69
$GPGGA,054300.000,3346.8781,N,08424.0594,W,1,06,2.9,326.6,M,-30.8,M,,0000*69
$GPGGA,054400.000,3346.8781,N,08424.0594,W,1,06,2.9,326.6,M,-30.8,M,,0000*69
$GPGGA,054500.000,3346.8781,N,08424.0594,W,1,06,2.9,326.6,M,-30.8,M,,0000*69
$GPGGA,054600.000,3346.8781,N,08424.0594,W,1,06,2.9,326.6,M,-30.8,M,,0000*69
$GPGGA,054700.000,3346.8781,N,08424.0594,W,1,06,2.9,326.6,M,-30.8,M,,0000*69
$GPGGA,054800.000,3346.8781,N,08424.0594,W,1,06,2.9,326.6,M,-30.8,M,,0000*69
$GPGGA,054900.000,3346.8781,N,08424.0594,W,1,06,2.9,326.6,M,-30.8,M,,0000*69
$GPGGA,055000.000,3346.8781,N,08424.0594,W,1,06,2.9,326.6,M,-30.8,M,,0000*69
$GPGGA,055100.000,3346.8781,N,08424.0594,W,1,06,2.9,326.6,M,-30.8,M,,0000*69
$GPGGA,055200.000,3346.8781,N,08424.0594,W,1,06,2.9,326.6,M,-30.8,M,,0000*69
$GPGGA,055300.000,3346.8781,N,08424.0594,W,1,06,2.9,326.6,M,-30.8,M,,0000*69
$GPGGA,055400.000,3346.8781,N,08424.0594,W,1,06,2.9,326.6,M,-30.8,M,,0000*69
$GPGGA,055500.000,3346.8781,N,08424.0594,W,1,06,2.9,326.6,M,-30.8,M,,0000*69
$GPGGA,055600.000,3346.8781,N,08424.0594,W,1,06,2.9,326.6,M,-30.8,M,,0000*69
$GPGGA,055700.000,3346.8781,N,08424.0594,W,1,06,2.9,326.6,M,-30.8,M,,0000*69
$GPGGA,055800.000,3346.8781,N,08424.0594,W,1,06,2.9,326.6,M,-30.8,M,,0000*69
$GPGGA,055900.000,3346.8781,N,08424.0594,W,1,06,2.9,326.6,M,-30.8,M,,0000*69
$GPGGA,060000.000,3346.8781,N,08424.0594,W,1,06,2.9,326.6,M,-30.8,M,,0000*69
$GPGGA,060100.000,3346.8781,N,08424.0594,W,1,06,2.9,326.6,M,-30.8,M,,0000*69
$GPGGA,060200.000,3346.8781,N,08424.0594,W,1,06,2.9,326.6,M,-30.8,M,,0000*69
$GPGGA,060300.000,3346.8781,N,08424.0594,W,1,06,2.9,326.6,M,-30.8,M,,0000*69
$GPGGA,060400.000,3346.8781,N,08424.0594,W,1,06,2.9,326.6,M,-30.8,M,,0000*69
$GPGGA,060500.000,3346.8781,N,08424.0594,W,1,06,2.9,326.6,M,-30.8,M,,0000*69
$GPGGA,060600.000,3346.8781,N,08424.0594,W,1,06,2.9,326.6,M,-30.8,M,,0000*69
$GPGGA,060700.000,3346.8781,N,08424.0594,W,1,06,2.9,326.6,M,-30.8,M,,0000*69
$GPGGA,060800.000,3346.8781,N,08424.0594,W,1,06,2.9,326.6,M,-30.8,M,,0000*69
$GPGGA,060900.000,3346.8781,N,08424.0594,W,1,06,2.9,326.6,M,-30.8,M,,0000*69
$GPGGA,061000.000,3346.8781,N,08424.0594,W,1,06,2.9,326.6,M,-30.8,M,,0000*69
$GPGGA,061100.000,3346.8781,N,08424.0594,W,1,06,2.9,326.6,M,-30.8,M,,0000*69
$GPGGA,061200.000,3346.8781,N,08424.0594,W,1,06,2.9,326.6,M,-30.8,M,,0000*69
$GPGGA,061300.000,3346.8781,N,08424.0594,W,1,06,2.9,326.6,M,-30.8,M,,0000*69
$GPGGA,061400.000,3346.8781,N,08424.0594,W,1,06,2.9,326.6,M,-30.8,M,,0000*69
$GPGGA,061500.000,3346.8781,N,08424.0594,W,1,06,2.9,326.6,M,-30.8,M,,0000*69
$GPGGA,061600.000,3346.8781,N,08424.0594,W,1,06,2.9,326.6,M,-30.8,M,,0000*69
$GPGGA,061700.000,3346.8781,N,08424.0594,W,1,06,2.9,326.6,M,-30.8,M,,0000*69
$GPGGA,061800.000,3346.8781,N,08424.0594,W,1,06,2.9,326.6,M,-30.8,M,,0000*69
$GPGGA,061900.000,3346.8781,N,08424.0594,W,1,06,2.9,326.6,M,-30.8,M,,0000*69
$GPGGA,062000.000,3346.8781,N,08424.0594,W,1,06,2.9,326.6,M,-30.8,M,,0000*69
$GPGGA,062100.000,3346.8781,N,08424.0594,W,1,06,2.9,326.6,M,-30.8,M,,0000*69
$GPGGA,062200.000,3346.8781,N,08424.0594,W,1,06,2.9,326.6,M,-30.8,M,,0000*69
$GPGGA,062300.000,3346.8781,N,08424.0594,W,1,06,2.9,326.6,M,-30.8,M,,0000*69
$GPGGA,062400.000,3346.8781,N,08424.0594,W,1,06,2.9,326.6,M,-30.8,M,,0000*69
$GPGGA,062500.000,3346.8781,N,08424.0594,W,1,06,2.9,326.6,M,-30.8,M,,0000*69
$GPGGA,062600.000,3346.8781,N,08424.0594,W,1,06,2.9,326.6,M,-30.8,M,,0000*69
$GPGGA,062700.000,3346.8781,N,08424.0594,W,1,06,2.9,326.6,M,-30.8,M,,0000*69
$GPGGA,062800.000,3346.8781,N,08424.0594,W,1,06,2.9,326.6,M,-30.8,M,,0000*69
$GPGGA,062900.000,3346.8781,N,08424.0594,W,1,06,2.9,326.6,M,-30.8,M,,0000*69
$GPGGA,063000.000,3346.8781,N,08424.0594,W,1,06,2.9,326.6,M,-30.8,M,,0000*69
$GPGGA,063100.000,3346.8781,N,08424.0594,W,1,06,2.9,326.6,M,-30.8,M,,0000*69
$GPGGA,063200.000,3346.8781,N,08424.0594,W,1,06,2.9,326.6,M,-30.8,M,,0000*69
$GPGGA,063300.000,3346.8781,N,08424.0594,W,1,06,2.9,326.6,M,-30.8,M,,0000*69
$GPGGA,063400.000,3346.8781,N,08424.0594,W,1,06,2.9,326.6,M,-30.8,M,,0000*69
$GPGGA,063500.000,3346.8781,N,08424.0594,W,1,06,2.9,326.6,M,-30.8,M,,0000*69
$GPGGA,063600.000,3346.8781,N,08424.0594,W,1,06,2.9,326.6,M,-30.8,M,,0000*69
$GPGGA,063700.000,3346.8781,N,08424.0594,W,1,06,2.9,326.6,M,-30.8,M,,0000*69
$GPGGA,063800.000,3346.8781,N,08424.0594,W,1,06,2.9,326.6,M,-30.8,M,,0000*69
$GPGGA,063900.000,3346.8781,N,08424.0594,W,1,06,2.9,326.6,M,-30.8,M,,0000*69
$GPGGA,064000.000,3346.8781,N,08424.0594,W,1,06,2.9,326.6,M,-30.8,M,,0000*69
$GPGGA,064100.000,3346.8781,N,08424.0594,W,1,06,2.9,326.6,M,-30.8,M,,0000*69
$GPGGA,064200.000,3346.8781,N,08424.0594,W,1,06,2.9,326.6,M,-30.8,M,,0000*69
$GPGGA,064300.000,3346.8781,N,08424.0594,W,1,06,2.9,326.6,M,-30.8,M,,0000*69
$GPGGA,064400.000,3346.8781,N,08424.0594,W,1,06,2.9,326.6,M,-30.8,M,,0000*69
$GPGGA,064500.000,3346.8781,N,08424.0594,W,1,06,2.9,326.6,M,-30.8,M,,0000*69
$GPGGA,064600.000,3346.8781,N,08424.0594,W,1,06,2.9,326.6,M,-30.8,M,,0000*69
$GPGGA,064700.000,3346.8781,N,08424.0594,W,1,06,2.9,326.6,M,-30.8,M,,0000*69
$GPGGA,064800.000,3346.8781,N,08424.0594,W,1,06,2.9,326.6,M,-30.8,M,,0000*69
$GPGGA,064900.000,3346.8781,N,08424.0594,W,1,06,2.9,326.6,M,-30.8,M,,0000*69
$GPGGA,065000.000,3346.8781,N,08424.0594,W,1,06,2.9,326.6,M,-30.8,M,,0000*69
$GPGGA,065100.000,3346.8781,N,08424.0594,W,1,06,2.9,326.6,M,-30.8,M,,0000*69
$GPGGA,065200.000,3346.8781,N,08424.0594,W,1,06,2.9,326.6,M,-30.8,M,,0000*69
$GPGGA,065300.000,3346.8781,N,08424.0594,W,1,06,2.9,326.6,M,-30.8,M,,0000*69
$GPGGA,065400.000,3346.8781,N,08424.0594,W,1,06,2.9,326.6,M,-30.8,M,,0000*69
$GPGGA,065500.000,3346.8781,N,08424.0594,W,1,06,2.9,326.6,M,-30.8,M,,0000*69
$GPGGA,065600.000,3346.8781,N,08424.0594,W,1,06,2.9,326.6,M,-30.8,M,,0000*69
$GPGGA,065700.000,3346.8781,N,08424.0594,W,1,06,2.9,326.6,M,-30.8,M,,0000*69
$GPGGA,065800.000,3346.8781,N,08424.0594,W,1,06,2.9,326.6,M,-30.8,M,,0000*69
$GPGGA,065900.000,3346.8781,N,08424.0594,W,1,06,2.9,326.6,M,-30.8,M,,0000*69
$GPGGA,070000.000,3346.8781,N,08424.0594,W,1,06,2.9,326.6,M,-30.8,M,,0000*69
$GPGGA,070100.000,3346.8781,N,08424.0594,W,1,06,2.9,326.6,M,-30.8,M,,0000*69
$GPGGA,070200.000,3346.8781,N,08424.0594,W,1,06,2.9,326.6,M,-30.8,M,,0000*69
$GPGGA,070300.000,3346.8781,N,08424.0594,W,1,06,2.9,326.6,M,-30.8,M,,0000*69
$GPGGA,070400.000,3346.8781,N,08424.0594,W,1,06,2.9,326.6,M,-30.8,M,,0000*69
$GPGGA,070500.000,3346.8781,N,08424.0594,W,1,06,2.9,326.6,M,-30.8,M,,0000*69
$GPGGA,070600.000,3346.8781,N,08424.0594,W,1,06,2.9,326.6,M,-30.8,M,,0000*69
$GPGGA,070700.000,3346.8781,N,08424.0594,W,1,06,2.9,326.6,M,-30.8,M,,0000*69
$GPGGA,070800.000,3346.8781,N,08424.0594,W,1,06,2.9,326.6,M,-30.8,M,,0000*69
$GPGGA,070900.000,3346.8781,N,08424.0594,W,1,06,2.9,326.6,M,-30.8,M,,0000*69
$GPGGA,071000.000,3346.8781,N,08424.0594,W,1,06,2.9,326.6,M,-30.8,M,,0000*69
$GPGGA,071100.000,3346.8781,N,08424.0594,W,1,06,2.9,326.6,M,-30.8,M,,0000*69
$GPGGA,071200.000,3346.8781,N,08424.0594,W,1,06,2.9,326.6,M,-30.8,M,,0000*69
$GPGGA,071300.000,3346.8781,N,08424.0594,W,1,06,2.9,326.6,M,-30.8,M,,0000*69
$GPGGA,071400.000,3346.8781,N,08424.0594,W,1,06,2.9,326.6,M,-30.8,M,,0000*69
$GPGGA,071500.000,3346.8781,N,08424.0594,W,1,06,2.9,326.6,M,-30.8,M,,0000*69
$GPGGA,071600.000,3346.8781,N,08424.0594,W,1,06,2.9,326.6,M,-30.8,M,,0000*69
$GPGGA,071700.000,3346.8781,N,08424.0594,W,1,06,2.9,326.6,M,-30.8,M,,0000*69
$GPGGA,071800.000,3346.8781,N,08424.0594,W,1,06,2.9,326.6,M,-30.8,M,,0000*69
$GPGGA,071900.000,3346.8781,N,08424.0594,W,1,06,2.9,326.6,M,-30.8,M,,0000*69
$GPGGA,072000.000,3346.8781,N,08424.0594,W,1,06,2.9,326.6,M,-30.8,M,,0000*69
$GPGGA,072100.000,3346.8781,N,08424.0594,W,1,06,2.9,326.6,M,-30.8,M,,0000*69
$GPGGA,072200.000,3346.8781,N,08424.0594,W,1,06,2.9,326.6,M,-30.8,M,,0000*69
$GPGGA,072300.000,3346.8781,N,08424.0594,W,1,06,2.9,326.6,M,-30.8,M,,0000*69
$GPGGA,072400.000,3346.8781,N,08424.0594,W,1,06,2.9,326.6,M,-30.8,M,,0000*69
$GPGGA,072500.000,3346.8781,N,08424.0594,W,1,06,2.9,326.6,M,-30.8,M,,0000*69
$GPGGA,072600.000,3346.8781,N,08424.0594,W,1,06,2.9,326.6,M,-30.8,M,,0000*69
$GPGGA,072700.000,3346.8781,N,08424.0594,W,1,06,2.9,326.6,M,-30.8,M,,0000*69
$GPGGA,072800.000,3346.8781,N,08424.0594,W,1,06,2.9,326.6,M,-30.8,M,,0000*69
$GPGGA,072900.000,3346.8781,N,08424.0594,W,1,06,2.9,326.6,M,-30.8,M,,0000*69
$GPGGA,073000.000,3346.8781,N,08424.0594,W,1,06,2.9,326.6,M,-30.8,M,,0000*69
$GPGGA,073100.000,3346.8781,N,08424.0594,W,1,06,2.9,326.6,M,-30.8,M,,0000*69
$GPGGA,073200.000,3346.8781,N,08424.0594,W,1,06,2.9,326.6,M,-30.8,M,,0000*69
$GPGGA,073300.000,3346.8781,N,08424.0594,W,1,06,2.9,326.6,M,-30.8,M,,0000*69
$GPGGA,073400.000,3346.8781,N,08424.0594,W,1,06,2.9,326.6,M,-30.8,M,,0000*69
$GPGGA,073500.000,3346.8781,N,08424.0594,W,1,06,2.9,326.6,M,-30.8,M,,0000*69
$GPGGA,073600.000,3346.8781,N,08424.0594,W,1,06,2.9,326.6,M,-30.8,M,,0000*69
$GPGGA,073700.000,3346.8781,N,08424.0594,W,1,06,2.9,326.6,M,-30.8,M,,0000*69
$GPGGA,073800.000,3346.8781,N,08424.0594,W,1,06,2.9,326.6,M,-30.8,M,,0000*69
$GPGGA,073900.000,3346.8781,N,08424.0594,W,1,06,2.9,326.6,M,-30.8,M,,0000*69
$GPGGA,074000.000,3346.8781,N,08424.0594,W,1,06,2.9,326.6,M,-30.8,M,,0000*69
$GPGGA,074100.000,3346.8781,N,08424.0594,W,1,06,2.9,326.6,M,-30.8,M,,0000*69
$GPGGA,074200.000,3346.8781,N,08424.0594,W,1,06,2.9,326.6,M,-30.8,M,,0000*69
$GPGGA,074300.000,3346.8781,N,08424.0594,W,1,06,2.9,326.6,M,-30.8,M,,0000*69
$GPGGA,074400.000,3346.8781,N,08424.0594,W,1,06,2.9,326.6,M,-30.8,M,,0000*69
$GPGGA,074500.000,3346.8781,N,08424.0594,W,1,06,2.9,326.6,M,-30.8,M,,0000*69
$GPGGA,074600.000,3346.8781,N,08424.0594,W,1,06,2.9,326.6,M,-30.8,M,,0000*69
$GPGGA,074700.000,3346.8781,N,08424.0594,W,1,06,2.9,326.6,M,-30.8,M,,0000*69
$GPGGA,074800.000,3346.8781,N,08424.0594,W,1,06,2.9,326.6,M,-30.8,M,,0000*69
$GPGGA,074900.000,3346.8781,N,08424.0594,W,1,06,2.9,326.6,M,-30.8,M,,0000*69
$GPGGA,075000.000,3346.8781,N,08424.0594,W,1,06,2.9,326.6,M,-30.8,M,,0000*69
$GPGGA,075100.000,3346.8781,N,08424.0594,W,1,06,2.9,326.6,M,-30.8,M,,0000*69
$GPGGA,075200.000,3346.8781,N,08424.0594,W,1,06,2.9,326.6,M,-30.8,M,,0000*69
$GPGGA,075300.000,3346.8781,N,08424.0594,W,1,06,2.9,326.6,M,-30.8,M,,0000*69
$GPGGA,075400.000,3346.8781,N,08424.0594,W,1,06,2.9,326.6,M,-30.8,M,,0000*69
$GPGGA,075500.000,3346.8781,N,08424.0594,W,1,06,2.9,326.6,M,-30.8,M,,0000*69
$GPGGA,075600.000,3346.8781,N,08424.0594,W,1,06,2.9,326.6,M,-30.8,M,,0000*69
$GPGGA,075700.000,3346.8781,N,08424.0594,W,1,06,2.9,326.6,M,-30.8,M,,0000*69
$GPGGA,075800.000,3346.8781,N,08424.0594,W,1,06,2.9,326.6,M,-30.8,M,,0000*69
$GPGGA,075900.000,3346.8781,N,08424.0594,W,1,06,2.9,326.6,M,-30.8,M,,0000*69
$GPGGA,080000.000,3346.8781,N,08424.0594,W,1,06,2.9,326.6,M,-30.8,M,,0000*69
$GPGGA,080100.000,3346.8781,N,08424.0594,W,1,06,2.9,326.6,M,-30.8,M,,0000*69
$GPGGA,080200.000,3346.8781,N,08424.0594,W,1,06,2.9,326.6,M,-30.8,M,,0000*69
$GPGGA,080300.000,3346.8781,N,08424.0594,W,1,06,2.9,326.6,M,-30.8,M,,0000*69
$GPGGA,080400.000,3346.8781,N,08424.0594,W,1,06,2.9,326.6,M,-30.8,M,,0000*69
$GPGGA,080500.000,3346.8781,N,08424.0594,W,1,06,2.9,326.6,M,-30.8,M,,0000*69
$GPGGA,080600.000,3346.8781,N,08424.0594,W,1,06,2.9,326.6,M,-30.8,M,,0000*69
$GPGGA,080700.000,3346.8781,N,08424.0594,W,1,06,2.9,326.6,M,-30.8,M,,0000*69
$GPGGA,080800.000,3346.8781,N,08424.0594,W,1,06,2.9,326.6,M,-30.8,M,,0000*69
$GPGGA,080900.000,3346.8781,N,08424.0594,W,1,06,2.9,326.6,M,-30.8,M,,0000*69
$GPGGA,081000.000,3346.8781,N,08424.0594,W,1,06,2.9,326.6,M,-30.8,M,,0000*69
$GPGGA,081100.000,3346.8781,N,08424.0594,W,1,06,2.9,326.6,M,-30.8,M,,0000*69
$GPGGA,081200.000,3346.8781,N,08424.0594,W,1,06,2.9,326.6,M,-30.8,M,,0000*69
$GPGGA,081300.000,3346.8781,N,08424.0594,W,1,06,2.9,326.6,M,-30.8,M,,0000*69
$GPGGA,081400.000,3346.8781,N,08424.0594,W,1,06,2.9,326.6,M,-30.8,M,,0000*69
$GPGGA,081500.000,3346.8781,N,08424.0594,W,1,06,2.9,326.6,M,-30.8,M,,0000*69
$GPGGA,081600.000,3346.8781,N,08424.0594,W,1,06,2.9,326.6,M,-30.8,M,,0000*69
$GPGGA,081700.000,3346.8781,N,08424.0594,W,1,06,2.9,326.6,M,-30.8,M,,0000*69
$GPGGA,081800.000,3346.8781,N,08424.0594,W,1,06,2.9,326.6,M,-30.8,M,,0000*69
$GPGGA,081900.000,3346.8781,N,08424.0594,W,1,06,2.9,326.6,M,-30.8,M,,0000*69
$GPGGA,082000.000,3346.8781,N,08424.0594,W,1,06,2.9,326.6,M,-30.8,M,,0000*69
$GPGGA,082100.000,3346.8781,N,08424.0594,W,1,06,2.9,326.6,M,-30.8,M,,0000*69
$GPGGA,082200.000,3346.8781,N,08424.0594,W,1,06,2.9,326.6,M,-30.8,M,,0000*69
$GPGGA,082300.000,3346.8781,N,08424.0594,W,1,06,2.9,326.6,M,-30.8,M,,0000*69
$GPGGA,082400.000,3346.8781,N,08424.0594,W,1,06,2.9,326.6,M,-30.8,M,,0000*69
$GPGGA,082500.000,3346.8781,N,08424.0594,W,1,06,2.9,326.6,M,-30.8,M,,0000*69
$GPGGA,082600.000,3346.8781,N,08424.0594,W,1,06,2.9,326.6,M,-30.8,M,,0000*69
$GPGGA,082700.000,3346.8781,N,08424.0594,W,1,06,2.9,326.6,M,-30.8,M,,0000*69
$GPGGA,082800.000,3346.8781,N,08424.0594,W,1,06,2.9,326.6,M,-30.8,M,,0000*69
$GPGGA,082900.000,3346.8781,N,08424.0594,W,1,06,2.9,326.6,M,-30.8,M,,0000*69
$GPGGA,083000.000,3346.8781,N,08424.0594,W,1,06,2.9,326.6,M,-30.8,M,,0000*69
$GPGGA,083100.000,3346.8781,N,08424.0594,W,1,06,2.9,326.6,M,-30.8,M,,0000*69
$GPGGA,083200.000,3346.8781,N,08424.0594,W,1,06,2.9,326.6,M,-30.8,M,,0000*69
$GPGGA,083300.000,3346.8781,N,08424.0594,W,1,06,2.9,326.6,M,-30.8,M,,0000*69
$GPGGA,083400.000,3346.8781,N,08424.0594,W,1,06,2.9,326.6,M,-30.8,M,,0000*69
$GPGGA,083500.000,3346.8781,N,08424.0594,W,1,06,2.9,326.6,M,-30.8,M,,0000*69
$GPGGA,083600.000,3346.8781,N,08424.0594,W,1,06,2.9,326.6,M,-30.8,M,,0000*69
$GPGGA,083700.000,3346.8781,N,08424.0594,W,1,06,2.9,326.6,M,-30.8,M,,0000*69
$GPGGA,083800.000,3346.8781,N,08424.0594,W,1,06,2.9,326.6,M,-30.8,M,,0000*69
$GPGGA,083900.000,3346.8781,N,08424.0594,W,1,06,2.9,326.6,M,-30.8,M,,0000*69
$GPGGA,084000.000,3346.8781,N,08424.0594,W,1,06,2.9,326.6,M,-30.8,M,,0000*69
$GPGGA,084100.000,3346.8781,N,08424.0594,W,1,06,2.9,326.6,M,-30.8,M,,0000*69
$GPGGA,084200.000,3346.8781,N,08424.0594,W,1,06,2.9,326.6,M,-30.8,M,,0000*69
$GPGGA,084300.000,3346.8781,N,08424.0594,W,1,06,2.9,326.6,M,-30.8,M,,0000*69
$GPGGA,084400.000,3346.8781,N,08424.0594,W,1,06,2.9,326.6,M,-30.8,M,,0000*69
$GPGGA,084500.000,3346.8781,N,08424.0594,W,1,06,2.9,326.6,M,-30.8,M,,0000*69
$GPGGA,084600.000,3346.8781,N,08424.0594,W,1,06,2.9,326.6,M,-30.8,M,,0000*69
$GPGGA,084700.000,3346.8781,N,08424.0594,W,1,06,2.9,326.6,M,-30.8,M,,0000*69
$GPGGA,084800.000,3346.8781,N,08424.0594,W,1,06,2.9,326.6,M,-30.8,M,,0000*69
$GPGGA,084900.000,3346.8781,N,08424.0594,W,1,06,2.9,326.6,M,-30.8,M,,0000*69
$GPGGA,085000.000,3346.8781,N,08424.0594,W,1,06,2.9,326.6,M,-30.8,M,,0000*69
$GPGGA,085100.000,3346.8781,N,08424.0594,W,1,06,2.9,326.6,M,-30.8,M,,0000*69
$GPGGA,085200.000,3346.8781,N,08424.0594,W,1,06,2.9,326.6,M,-30.8,M,,0000*69
$GPGGA,085300.000,3346.8781,N,08424.0594,W,1,06,2.9,326.6,M,-30.8,M,,0000*69
$GPGGA,085400.000,3346.8781,N,08424.0594,W,1,06,2.9,326.6,M,-30.8,M,,0000*69
$GPGGA,085500.000,3346.8781,N,08424.0594,W,1,06,2.9,326.6,M,-30.8,M,,0000*69
$GPGGA,085600.000,3346.8781,N,08424.0594,W,1,06,2.9,326.6,M,-30.8,M,,0000*69
$GPGGA,085700.000,3346.8781,N,08424.0594,W,1,06,2.9,326.6,M,-30.8,M,,0000*69
$GPGGA,085800.000,3346.8781,N,08424.0594,W,1,06,2.9,326.6,M,-30.8,M,,0000*69
$GPGGA,085900.000,3346.8781,N,08424.0594,W,1,06,2.9,326.6,M,-30.8,M,,0000*69
$GPGGA,090000.000,3346.8781,N,08424.0594,W,1,06,2.9,326.6,M,-30.8,M,,0000*69
$GPGGA,090100.000,3346.8781,N,08424.0594,W,1,06,2.9,326.6,M,-30.8,M,,0000*69
$GPGGA,090200.000,3346.8781,N,08424.0594,W,1,06,2.9,326.6,M,-30.8,M,,0000*69
$GPGGA,090300.000,3346.8781,N,08424.0594,W,1,06,2.9,326.6,M,-30.8,M,,0000*69
$GPGGA,090400.000,3346.8781,N,08424.0594,W,1,06,2.9,326.6,M,-30.8,M,,0000*69
$GPGGA,090500.000,3346.8781,N,08424.0594,W,1,06,2.9,326.6,M,-30.8,M,,0000*69
$GPGGA,090600.000,3346.8781,N,08424.0594,W,1,06,2.9,326.6,M,-30.8,M,,0000*69
$GPGGA,090700.000,3346.8781,N,08424.0594,W,1,06,2.9,326.6,M,-30.8,M,,0000*69
$GPGGA,090800.000,3346.8781,N,08424.0594,W,1,06,2.9,326.6,M,-30.8,M,,0000*69
$GPGGA,090900.000,3346.8781,N,08424.0594,W,1,06,2.9,326.6,M,-30.8,M,,0000*69
$GPGGA,091000.000,3346.8781,N,08424.0594,W,1,06,2.9,326.6,M,-30.8,M,,0000*69
$GPGGA,091100.000,3346.8781,N,08424.0594,W,1,06,2.9,326.6,M,-30.8,M,,0000*69
$GPGGA,091200.000,3346.8781,N,08424.0594,W,1,06,2.9,326.6,M,-30.8,M,,0000*69
$GPGGA,091300.000,3346.8781,N,08424.0594,W,1,06,2.9,326.6,M,-30.8,M,,0000*69
$GPGGA,091400.000,3346.8781,N,08424.0594,W,1,06,2.9,326.6,M,-30.8,M,,0000*69
$GPGGA,091500.000,3346.8781,N,08424.0594,W,1,06,2.9,326.6,M,-30.8,M,,0000*69
$GPGGA,091600.000,3346.8781,N,08424.0594,W,1,06,2.9,326.6,M,-30.8,M,,0000*69
$GPGGA,091700.000,3346.8781,N,08424.0594,W,1,06,2.9,326.6,M,-30.8,M,,0000*69
$GPGGA,091800.000,3346.8781,N,08424.0594,W,1,06,2.9,326.6,M,-30.8,M,,0000*69
$GPGGA,091900.000,3346.8781,N,08424.0594,W,1,06,2.9,326.6,M,-30.8,M,,0000*69
$GPGGA,092000.000,3346.8781,N,08424.0594,W,1,06,2.9,326.6,M,-30.8,M,,0000*69
$GPGGA,092100.000,3346.8781,N,08424.0594,W,1,06,2.9,326.6,M,-30.8,M,,0000*69
$GPGGA,092200.000,3346.8781,N,08424.0594,W,1,06,2.9,326.6,M,-30.8,M,,0000*69
$GPGGA,092300.000,3346.8781,N,08424.0594,W,1,06,2.9,326.6,M,-30.8,M,,0000*69
$GPGGA,092400.000,3346.8781,N,08424.0594,W,1,06,2.9,326.6,M,-30.8,M,,0000*69
$GPGGA,092500.000,3346.8781,N,08424.0594,W,1,06,2.9,326.6,M,-30.8,M,,0000*69
$GPGGA,092600.000,3346.8781,N,08424.0594,W,1,06,2.9,326.6,M,-30.8,M,,0000*69
$GPGGA,092700.000,3346.8781,N,08424.0594,W,1,06,2.9,326.6,M,-30.8,M,,0000*69
$GPGGA,092800.000,3346.8781,N,08424.0594,W,1,06,2.9,326.6,M,-30.8,M,,0000*69
$GPGGA,092900.000,3346.8781,N,08424.0594,W,1,06,2.9,326.6,M,-30.8,M,,0000*69
$GPGGA,093000.000,3346.8781,N,08424.0594,W,1,06,2.9,326.6,M,-30.8,M,,0000*69
$GPGGA,093100.000,3346.8781,N,08424.0594,W,1,06,2.9,326.6,M,-30.8,M,,0000*69
$GPGGA,093200.000,3346.8781,N,08424.0594,W,1,06,2.9,326.6,M,-30.8,M,,0000*69
$GPGGA,093300.000,3346.8781,N,08424.0594,W,1,06,2.9,326.6,M,-30.8,M,,0000*69
$GPGGA,093400.000,3346.8781,N,08424.0594,W,1,06,2.9,326.6,M,-30.8,M,,0000*69
$GPGGA,093500.000,3346.8781,N,08424.0594,W,1,06,2.9,326.6,M,-30.8,M,,0000*69
$GPGGA,093600.000,3346.8781,N,08424.0594,W,1,06,2.9,326.6,M,-30.8,M,,0000*69
$GPGGA,093700.000,3346.8781,N,08424.0594,W,1,06,2.9,326.6,M,-30.8,M,,0000*69
$GPGGA,093800.000,3346.8781,N,08424.0594,W,1,06,2.9,326.6,M,-30.8,M,,0000*69
$GPGGA,093900.000,3346.8781,N,08424.0594,W,1,06,2.9,326.6,M,-30.8,M,,0000*69
$GPGGA,094000.000,3346.8781,N,08424.0594,W,1,06,2.9,326.6,M,-30.8,M,,0000*69
$GPGGA,094100.000,3346.8781,N,08424.0594,W,1,06,2.9,326.6,M,-30.8,M,,0000*69
$GPGGA,094200.000,3346.8781,N,08424.0594,W,1,06,2.9,326.6,M,-30.8,M,,0000*69
$GPGGA,094300.000,3346.8781,N,08424.0594,W,1,06,2.9,326.6,M,-30.8,M,,0000*69
$GPGGA,094400.000,3346.8781,N,08424.0594,W,1,06,2.9,326.6,M,-30.8,M,,0000*69
$GPGGA,094500.000,3346.8781,N,08424.0594,W,1,06,2.9,326.6,M,-30.8,M,,0000*69
$GPGGA,094600.000,3346.8781,N,08424.0594,W,1,06,2.9,326.6,M,-30.8,M,,0000*69
$GPGGA,094700.000,3346.8781,N,08424.0594,W,1,06,2.9,326.6,M,-30.8,M,,0000*69
$GPGGA,094800.000,3346.8781,N,08424.0594,W,1,06,2.9,326.6,M,-30.8,M,,0000*69
$GPGGA,094900.000,3346.8781,N,08424.0594,W,1,06,2.9,326.6,M,-30.8,M,,0000*69
$GPGGA,095000.000,3346.8781,N,08424.0594,W,1,06,2.9,326.6,M,-30.8,M,,0000*69
$GPGGA,095100.000,3346.8781,N,08424.0594,W,1,06,2.9,326.6,M,-30.8,M,,0000*69
$GPGGA,095200.000,3346.8781,N,08424.0594,W,1,06,2.9,326.6,M,-30.8,M,,0000*69
$GPGGA,095300.000,3346.8781,N,08424.0594,W,1,06,2.9,326.6,M,-30.8,M,,0000*69
$GPGGA,095400.000,3346.8781,N,08424.0594,W,1,06,2.9,326.6,M,-30.8,M,,0000*69
$GPGGA,095500.000,3346.8781,N,08424.0594,W,1,06,2.9,326.6,M,-30.8,M,,0000*69
$GPGGA,095600.000,3346.8781,N,08424.0594,W,1,06,2.9,326.6,M,-30.8,M,,0000*69
$GPGGA,095700.000,3346.8781,N,08424.0594,W,1,06,2.9,326.6,M,-30.8,M,,0000*69
$GPGGA,095800.000,3346.8781,N,08424.0594,W,1,06,2.9,326.6,M,-30.8,M,,0000*69
$GPGGA,095900.000,3346.8781,N,08424.0594,W,1,06,2.9,326.6,M,-30.8,M,,0000*69
$GPGGA,100000.000,3346.8781,N,08424.0594,W,1,06,2.9,326.6,M,-30.8,M,,0000*69
$GPGGA,100100.000,3346.8781,N,08424.0594,W,1,06,2.9,326.6,M,-30.8,M,,0000*69
$GPGGA,100200.000,3346.8781,N,08424.0594,W,1,06,2.9,326.6,M,-30.8,M,,0000*69
$GPGGA,100300.000,3346.8781,N,08424.0594,W,1,06,2.9,326.6,M,-30.8,M,,0000*69
$GPGGA,100400.000,3346.8781,N,08424.0594,W,1,06,2.9,326.6,M,-30.8,M,,0000*69
$GPGGA,100500.000,3346.8781,N,08424.0594,W,1,06,2.9,326.6,M,-30.8,M,,0000*69
$GPGGA,100600.000,3346.8781,N,08424.0594,W,1,06,2.9,326.6,M,-30.8,M,,0000*69
$GPGGA,100700.000,3346.8781,N,08424.0594,W,1,06,2.9,326.6,M,-30.8,M,,0000*69
$GPGGA,100800.000,3346.8781,N,08424.0594,W,1,06,2.9,326.6,M,-30.8,M,,0000*69
$GPGGA,100900.000,3346.8781,N,08424.0594,W,1,06,2.9,326.6,M,-30.8,M,,0000*69
$GPGGA,101000.000,3346.8781,N,08424.0594,W,1,06,2.9,326.6,M,-30.8,M,,0000*69
$GPGGA,101100.000,3346.8781,N,08424.0594,W,1,06,2.9,326.6,M,-30.8,M,,0000*69
$GPGGA,101200.000,3346.8781,N,08424.0594,W,1,06,2.9,326.6,M,-30.8,M,,0000*69
$GPGGA,101300.000,3346.8781,N,08424.0594,W,1,06,2.9,326.6,M,-30.8,M,,0000*69
$GPGGA,101400.000,3346.8781,N,08424.0594,W,1,06,2.9,326.6,M,-30.8,M,,0000*69
$GPGGA,101500.000,3346.8781,N,08424.0594,W,1,06,2.9,326.6,M,-30.8,M,,0000*69
$GPGGA,101600.000,3346.8781,N,08424.0594,W,1,06,2.9,326.6,M,-30.8,M,,0000*69
$GPGGA,101700.000,3346.8781,N,08424.0594,W,1,06,2.9,326.6,M,-30.8,M,,0000*69
$GPGGA,101800.000,3346.8781,N,08424.0594,W,1,06,2.9,326.6,M,-30.8,M,,0000*69
$GPGGA,101900.000,3346.8781,N,08424.0594,W,1,06,2.9,326.6,M,-30.8,M,,0000*69
$GPGGA,102000.000,3346.8781,N,08424.0594,W,1,06,2.9,326.6,M,-30.8,M,,0000*69
$GPGGA,102100.000,3346.8781,N,08424.0594,W,1,06,2.9,326.6,M,-30.8,M,,0000*69
$GPGGA,102200.000,3346.8781,N,08424.0594,W,1,06,2.9,326.6,M,-30.8,M,,0000*69
$GPGGA,102300.000,3346.8781,N,08424.0594,W,1,06,2.9,326.6,M,-30.8,M,,0000*69
$GPGGA,102400.000,3346.8781,N,08424.0594,W,1,06,2.9,326.6,M,-30.8,M,,0000*69
$GPGGA,102500.000,3346.8781,N,08424.0594,W,1,06,2.9,326.6,M,-30.8,M,,0000*69
$GPGGA,102600.000,3346.8781,N,08424.0594,W,1,06,2.9,326.6,M,-30.8,M,,0000*69
$GPGGA,102700.000,3346.8781,N,08424.0594,W,1,06,2.9,326.6,M,-30.8,M,,0000*69
$GPGGA,102800.000,3346.8781,N,08424.0594,W,1,06,2.9,326.6,M,-30.8,M,,0000*69
$GPGGA,102900.000,3346.8781,N,08424.0594,W,1,06,2.9,326.6,M,-30.8,M,,0000*69
$GPGGA,103000.000,3346.8781,N,08424.0594,W,1,06,2.9,326.6,M,-30.8,M,,0000*69
$GPGGA,103100.000,3346.8781,N,08424.0594,W,1,06,2.9,326.6,M,-30.8,M,,0000*69
$GPGGA,103200.000,3346.8781,N,08424.0594,W,1,06,2.9,326.6,M,-30.8,M,,0000*69
$GPGGA,103300.000,3346.8781,N,08424.0594,W,1,06,2.9,326.6,M,-30.8,M,,0000*69
$GPGGA,103400.000,3346.8781,N,08424.0594,W,1,06,2.9,326.6,M,-30.8,M,,0000*69
$GPGGA,103500.000,3346.8781,N,08424.0594,W,1,06,2.9,326.6,M,-30.8,M,,0000*69
$GPGGA,103600.000,3346.8781,N,08424.0594,W,1,06,2.9,326.6,M,-30.8,M,,0000*69
$GPGGA,103700.000,3346.8781,N,08424.0594,W,1,06,2.9,326.6,M,-30.8,M,,0000*69
$GPGGA,103800.000,3346.8781,N,08424.0594,W,1,06,2.9,326.6,M,-30.8,M,,0000*69
$GPGGA,103900.000,3346.8781,N,08424.0594,W,1,06,2.9,326.6,M,-30.8,M,,0000*69
$GPGGA,104000.000,3346.8781,N,08424.0594,W,1,06,2.9,326.6,M,-30.8,M,,0000*69
$GPGGA,104100.000,3346.8781,N,08424.0594,W,1,06,2.9,326.6,M,-30.8,M,,0000*69
$GPGGA,104200.000,3346.8781,N,08424.0594,W,1,06,2.9,326.6,M,-30.8,M,,0000*69
$GPGGA,104300.000,3346.8781,N,08424.0594,W,1,06,2.9,326.6,M,-30.8,M,,0000*69
$GPGGA,104400.000,3346.8781,N,08424.0594,W,1,06,2.9,326.6,M,-30.8,M,,0000*69
$GPGGA,104500.000,3346.8781,N,08424.0594,W,1,06,2.9,326.6,M,-30.8,M,,0000*69
$GPGGA,104600.000,3346.8781,N,08424.0594,W,1,06,2.9,326.6,M,-30.8,M,,0000*69
$GPGGA,104700.000,3346.8781,N,08424.0594,W,1,06,2.9,326.6,M,-30.8,M,,0000*69
$GPGGA,104800.000,3346.8781,N,08424.0594,W,1,06,2.9,326.6,M,-30.8,M,,0000*69
$GPGGA,104900.000,3346.8781,N,08424.0594,W,1,06,2.9,326.6,M,-30.8,M,,0000*69
$GPGGA,105000.000,3346.8781,N,08424.0594,W,1,06,2.9,326.6,M,-30.8,M,,0000*69
$GPGGA,105100.000,3346.8781,N,08424.0594,W,1,06,2.9,326.6,M,-30.8,M,,0000*69
$GPGGA,105200.000,3346.8781,N,08424.0594,W,1,06,2.9,326.6,M,-30.8,M,,0000*69
$GPGGA,105300.000,3346.8781,N,08424.0594,W,1,06,2.9,326.6,M,-30.8,M,,0000*69
$GPGGA,105400.000,3346.8781,N,08424.0594,W,1,06,2.9,326.6,M,-30.8,M,,0000*69
$GPGGA,105500.000,3346.8781,N,08424.0594,W,1,06,2.9,326.6,M,-30.8,M,,0000*69
$GPGGA,105600.000,3346.8781,N,08424.0594,W,1,06,2.9,326.6,M,-30.8,M,,0000*69
$GPGGA,105700.000,3346.8781,N,08424.0594,W,1,06,2.9,326.6,M,-30.8,M,,0000*69
$GPGGA,105800.000,3346.8781,N,08424.0594,W,1,06,2.9,326.6,M,-30.8,M,,0000*69
$GPGGA,105900.000,3346.8781,N,08424.0594,W,1,06,2.9,326.6,M,-30.8,M,,0000*69
$GPGGA,110000.000,3346.8781,N,08424.0594,W,1,06,2.9,326.6,M,-30.8,M,,0000*69
$GPGGA,110100.000,3346.8781,N,08424.0594,W,1,06,2.9,326.6,M,-30.8,M,,0000*69
$GPGGA,110200.000,3346.8781,N,08424.0594,W,1,06,2.9,326.6,M,-30.8,M,,0000*69
$GPGGA,110300.000,3346.8781,N,08424.0594,W,1,06,2.9,326.6,M,-30.8,M,,0000*69
$GPGGA,110400.000,3346.8781,N,08424.0594,W,1,06,2.9,326.6,M,-30.8,M,,0000*69
$GPGGA,110500.000,3346.8781,N,08424.0594,W,1,06,2.9,326.6,M,-30.8,M,,0000*69
$GPGGA,110600.000,3346.8781,N,08424.0594,W,1,06,2.9,326.6,M,-30.8,M,,0000*69
$GPGGA,110700.000,3346.8781,N,08424.0594,W,1,06,2.9,326.6,M,-30.8,M,,0000*69
$GPGGA,110800.000,3346.8781,N,08424.0594,W,1,06,2.9,326.6,M,-30.8,M,,0000*69
$GPGGA,110900.000,3346.8781,N,08424.0594,W,1,06,2.9,326.6,M,-30.8,M,,0000*69
$GPGGA,111000.000,3346.8781,N,08424.0594,W,1,06,2.9,326.6,M,-30.8,M,,0000*69
$GPGGA,111100.000,3346.8781,N,08424.0594,W,1,06,2.9,326.6,M,-30.8,M,,0000*69
$GPGGA,111200.000,3346.8781,N,08424.0594,W,1,06,2.9,326.6,M,-30.8,M,,0000*69
$GPGGA,111300.000,3346.8781,N,08424.0594,W,1,06,2.9,326.6,M,-30.8,M,,0000*69
$GPGGA,111400.000,3346.8781,N,08424.0594,W,1,06,2.9,326.6,M,-30.8,M,,0000*69
$GPGGA,111500.000,3346.8781,N,08424.0594,W,1,06,2.9,326.6,M,-30.8,M,,0000*69
$GPGGA,111600.000,3346.8781,N,08424.0594,W,1,06,2.9,326.6,M,-30.8,M,,0000*69
$GPGGA,111700.000,3346.8781,N,08424.0594,W,1,06,2.9,326.6,M,-30.8,M,,0000*69
$GPGGA,111800.000,3346.8781,N,08424.0594,W,1,06,2.9,326.6,M,-30.8,M,,0000*69
$GPGGA,111900.000,3346.8781,N,08424.0594,W,1,06,2.9,326.6,M,-30.8,M,,0000*69
$GPGGA,112000.000,3346.8781,N,08424.0594,W,1,06,2.9,326.6,M,-30.8,M,,0000*69
$GPGGA,112100.000,3346.8781,N,08424.0594,W,1,06,2.9,326.6,M,-30.8,M,,0000*69
$GPGGA,112200.000,3346.8781,N,08424.0594,W,1,06,2.9,326.6,M,-30.8,M,,0000*69
$GPGGA,112300.000,3346.8781,N,08424.0594,W,1,06,2.9,326.6,M,-30.8,M,,0000*69
$GPGGA,112400.000,3346.8781,N,08424.0594,W,1,06,2.9,326.6,M,-30.8,M,,0000*69
$GPGGA,112500.000,3346.8781,N,08424.0594,W,1,06,2.9,326.6,M,-30.8,M,,0000*69
$GPGGA,112600.000,3346.8781,N,08424.0594,W,1,06,2.9,326.6,M,-30.8,M,,0000*69
$GPGGA,112700.000,3346.8781,N,08424.0594,W,1,06,2.9,326.6,M,-30.8,M,,0000*69
$GPGGA,112800.000,3346.8781,N,08424.0594,W,1,06,2.9,326.6,M,-30.8,M,,0000*69
$GPGGA,112900.000,3346.8781,N,08424.0594,W,1,06,2.9,326.6,M,-30.8,M,,0000*69
$GPGGA,113000.000,3346.8781,N,08424.0594,W,1,06,2.9,326.6,M,-30.8,M,,0000*69
$GPGGA,113100.000,3346.8781,N,08424.0594,W,1,06,2.9,326.6,M,-30.8,M,,0000*69
$GPGGA,113200.000,3346.8781,N,08424.0594,W,1,06,2.9,326.6,M,-30.8,M,,0000*69
$GPGGA,113300.000,3346.8781,N,08424.0594,W,1,06,2.9,326.6,M,-30.8,M,,0000*69
$GPGGA,113400.000,3346.8781,N,08424.0594,W,1,06,2.9,326.6,M,-30.8,M,,0000*69
$GPGGA,113500.000,3346.8781,N,08424.0594,W,1,06,2.9,326.6,M,-30.8,M,,0000*69
$GPGGA,113600.000,3346.8781,N,08424.0594,W,1,06,2.9,326.6,M,-30.8,M,,0000*69
$GPGGA,113700.000,3346.8781,N,08424.0594,W,1,06,2.9,326.6,M,-30.8,M,,0000*69
$GPGGA,113800.000,3346.8781,N,08424.0594,W,1,06,2.9,326.6,M,-30.8,M,,0000*69
$GPGGA,113900.000,3346.8781,N,08424.0594,W,1,06,2.9,326.6,M,-30.8,M,,0000*69
$GPGGA,114000.000,3346.8781,N,08424.0594,W,1,06,2.9,326.6,M,-30.8,M,,0000*69
$GPGGA,114100.000,3346.8781,N,08424.0594,W,1,06,2.9,326.6,M,-30.8,M,,0000*69
$GPGGA,114200.000,3346.8781,N,08424.0594,W,1,06,2.9,326.6,M,-30.8,M,,0000*69
$GPGGA,114300.000,3346.8781,N,08424.0594,W,1,06,2.9,326.6,M,-30.8,M,,0000*69
$GPGGA,114400.000,3346.8781,N,08424.0594,W,1,06,2.9,326.6,M,-30.8,M,,0000*69
$GPGGA,114500.000,3346.8781,N,08424.0594,W,1,06,2.9,326.6,M,-30.8,M,,0000*69
$GPGGA,114600.000,3346.8781,N,08424.0594,W,1,06,2.9,326.6,M,-30.8,M,,0000*69
$GPGGA,114700.000,3346.8781,N,08424.0594,W,1,06,2.9,326.6,M,-30.8,M,,0000*69
$GPGGA,114800.000,3346.8781,N,08424.0594,W,1,06,2.9,326.6,M,-30.8,M,,0000*69
$GPGGA,114900.000,3346.8781,N,08424.0594,W,1,06,2.9,326.6,M,-30.8,M,,0000*69
$GPGGA,115000.000,3346.8781,N,08424.0594,W,1,06,2.9,326.6,M,-30.8,M,,0000*69
$GPGGA,115100.000,3346.8781,N,08424.0594,W,1,06,2.9,326.6,M,-30.8,M,,0000*69
$GPGGA,115200.000,3346.8781,N,08424.0594,W,1,06,2.9,326.6,M,-30.8,M,,0000*69
$GPGGA,115300.000,3346.8781,N,08424.0594,W,1,06,2.9,326.6,M,-30.8,M,,0000*69
$GPGGA,115400.000,3346.8781,N,08424.0594,W,1,06,2.9,326.6,M,-30.8,M,,0000*69
$GPGGA,115500.000,3346.8781,N,08424.0594,W,1,06,2.9,326.6,M,-30.8,M,,0000*69
$GPGGA,115600.000,3346.8781,N,08424.0594,W,1,06,2.9,326.6,M,-30.8,M,,0000*69
$GPGGA,115700.000,3346.8781,N,08424.0594,W,1,06,2.9,326.6,M,-30.8,M,,0000*69
$GPGGA,115800.000,3346.8781,N,08424.0594,W,1,06,2.9,326.6,M,-30.8,M,,0000*69
$GPGGA,115900.000,3346.8781,N,08424.0594,W,1,06,2.9,326.6,M,-30.8,M,,0000*69
$GPGGA,120000.000,3346.8781,N,08424.0594,W,1,06,2.9,326.6,M,-30.8,M,,0000*69
$GPGGA,120100.000,3346.8781,N,08424.0594,W,1,06,2.9,326.6,M,-30.8,M,,0000*69
$GPGGA,120200.000,3346.8781,N,08424.0594,W,1,06,2.9,326.6,M,-30.8,M,,0000*69
$GPGGA,120300.000,3346.8781,N,08424.0594,W,1,06,2.9,326.6,M,-30.8,M,,0000*69
$GPGGA,120400.000,3346.8781,N,08424.0594,W,1,06,2.9,326.6,M,-30.8,M,,0000*69
$GPGGA,120500.000,3346.8781,N,08424.0594,W,1,06,2.9,326.6,M,-30.8,M,,0000*69
$GPGGA,120600.000,3346.8781,N,08424.0594,W,1,06,2.9,326.6,M,-30.8,M,,0000*69
$GPGGA,120700.000,3346.8781,N,08424.0594,W,1,06,2.9,326.6,M,-30.8,M,,0000*69
$GPGGA,120800.000,3346.8781,N,08424.0594,W,1,06,2.9,326.6,M,-30.8,M,,0000*69
$GPGGA,120900.000,3346.8781,N,08424.0594,W,1,06,2.9,326.6,M,-30.8,M,,0000*69
$GPGGA,121000.000,3346.8781,N,08424.0594,W,1,06,2.9,326.6,M,-30.8,M,,0000*69
$GPGGA,121100.000,3346.8781,N,08424.0594,W,1,06,2.9,326.6,M,-30.8,M,,0000*69
$GPGGA,121200.000,3346.8781,N,08424.0594,W,1,06,2.9,326.6,M,-30.8,M,,0000*69
$GPGGA,121300.000,3346.8781,N,08424.0594,W,1,06,2.9,326.6,M,-30.8,M,,0000*69
$GPGGA,121400.000,3346.8781,N,08424.0594,W,1,06,2.9,326.6,M,-30.8,M,,0000*69
$GPGGA,121500.000,3346.8781,N,08424.0594,W,1,06,2.9,326.6,M,-30.8,M,,0000*69
$GPGGA,121600.000,3346.8781,N,08424.0594,W,1,06,2.9,326.6,M,-30.8,M,,0000*69
$GPGGA,121700.000,3346.8781,N,08424.0594,W,1,06,2.9,326.6,M,-30.8,M,,0000*69
$GPGGA,121800.000,3346.8781,N,08424.0594,W,1,06,2.9,326.6,M,-30.8,M,,0000*69
$GPGGA,121900.000,3346.8781,N,08424.0594,W,1,06,2.9,326.6,M,-30.8,M,,0000*69
$GPGGA,122000.000,3346.8781,N,08424.0594,W,1,06,2.9,326.6,M,-30.8,M,,0000*69
$GPGGA,122100.000,3346.8781,N,08424.0594,W,1,06,2.9,326.6,M,-30.8,M,,0000*69
$GPGGA,122200.000,3346.8781,N,08424.0594,W,1,06,2.9,326.6,M,-30.8,M,,0000*69
$GPGGA,122300.000,3346.8781,N,08424.0594,W,1,06,2.9,326.6,M,-30.8,M,,0000*69
$GPGGA,122400.000,3346.8781,N,08424.0594,W,1,06,2.9,326.6,M,-30.8,M,,0000*69
$GPGGA,122500.000,3346.8781,N,08424.0594,W,1,06,2.9,326.6,M,-30.8,M,,0000*69
$GPGGA,122600.000,3346.8781,N,08424.0594,W,1,06,2.9,326.6,M,-30.8,M,,0000*69
$GPGGA,122700.000,3346.8781,N,08424.0594,W,1,06,2.9,326.6,M,-30.8,M,,0000*69
$GPGGA,122800.000,3346.8781,N,08424.0594,W,1,06,2.9,326.6,M,-30.8,M,,0000*69
$GPGGA,122900.000,3346.8781,N,08424.0594,W,1,06,2.9,326.6,M,-30.8,M,,0000*69
$GPGGA,123000.000,3346.8781,N,08424.0594,W,1,06,2.9,326.6,M,-30.8,M,,0000*69
$GPGGA,123100.000,3346.8781,N,08424.0594,W,1,06,2.9,326.6,M,-30.8,M,,0000*69
$GPGGA,123200.000,3346.8781,N,08424.0594,W,1,06,2.9,326.6,M,-30.8,M,,0000*69
$GPGGA,123300.000,3346.8781,N,08424.0594,W,1,06,2.9,326.6,M,-30.8,M,,0000*69
$GPGGA,123400.000,3346.8781,N,08424.0594,W,1,06,2.9,326.6,M,-30.8,M,,0000*69
$GPGGA,123500.000,3346.8781,N,08424.0594,W,1,06,2.9,326.6,M,-30.8,M,,0000*69
$GPGGA,123600.000,3346.8781,N,08424.0594,W,1,06,2.9,326.6,M,-30.8,M,,0000*69
$GPGGA,123700.000,3346.8781,N,08424.0594,W,1,06,2.9,326.6,M,-30.8,M,,0000*69
$GPGGA,123800.000,3346.8781,N,08424.0594,W,1,06,2.9,326.6,M,-30.8,M,,0000*69
$GPGGA,123900.000,3346.8781,N,08424.0594,W,1,06,2.9,326.6,M,-30.8,M,,0000*69
$GPGGA,124000.000,3346.8781,N,08424.0594,W,1,06,2.9,326.6,M,-30.8,M,,0000*69
$GPGGA,124100.000,3346.8781,N,08424.0594,W,1,06,2.9,326.6,M,-30.8,M,,0000*69
$GPGGA,124200.000,3346.8781,N,08424.0594,W,1,06,2.9,326.6,M,-30.8,M,,0000*69
$GPGGA,124300.000,3346.8781,N,08424.0594,W,1,06,2.9,326.6,M,-30.8,M,,0000*69
$GPGGA,124400.000,3346.8781,N,08424.0594,W,1,06,2.9,326.6,M,-30.8,M,,0000*69
$GPGGA,124500.000,3346.8781,N,08424.0594,W,1,06,2.9,326.6,M,-30.8,M,,0000*69
$GPGGA,124600.000,3346.8781,N,08424.0594,W,1,06,2.9,326.6,M,-30.8,M,,0000*69
$GPGGA,124700.000,3346.8781,N,08424.0594,W,1,06,2.9,326.6,M,-30.8,M,,0000*69
$GPGGA,124800.000,3346.8781,N,08424.0594,W,1,06,2.9,326.6,M,-30.8,M,,0000*69
$GPGGA,124900.000,3346.8781,N,08424.0594,W,1,06,2.9,326.6,M,-30.8,M,,0000*69
$GPGGA,125000.000,3346.8781,N,08424.0594,W,1,06,2.9,326.6,M,-30.8,M,,0000*69
$GPGGA,125100.000,3346.8781,N,08424.0594,W,1,06,2.9,326.6,M,-30.8,M,,0000*69
$GPGGA,125200.000,3346.8781,N,08424.0594,W,1,06,2.9,326.6,M,-30.8,M,,0000*69
$GPGGA,125300.000,3346.8781,N,08424.0594,W,1,06,2.9,326.6,M,-30.8,M,,0000*69
$GPGGA,125400.000,3346.8781,N,08424.0594,W,1,06,2.9,326.6,M,-30.8,M,,0000*69
$GPGGA,125500.000,3346.8781,N,08424.0594,W,1,06,2.9,326.6,M,-30.8,M,,0000*69
$GPGGA,125600.000,3346.8781,N,08424.0594,W,1,06,2.9,326.6,M,-30.8,M,,0000*69
$GPGGA,125700.000,3346.8781,N,08424.0594,W,1,06,2.9,326.6,M,-30.8,M,,0000*69
$GPGGA,125800.000,3346.8781,N,08424.0594,W,1,06,2.9,326.6,M,-30.8,M,,0000*69
